{
  "schools" : [ {
    "gsId" : 1536,
    "name" : "Adams Elementary School",
    "type" : "public",
    "gradeRange" : "K-5",
    "city" : "Seattle",
    "state" : "WA",
    "address" : "6110 28 Av NW, Seattle, WA  98107",
    "phone" : "(206) 252-1300",
    "website" : "http://www.seattleschools.org/schools/adams",
    "ncesId" : "530771001127",
    "districtId" : "229",
    "overviewLink" : "http://www.greatschools.org/washington/seattle/1536-Adams-Elementary-School/?s_cid=gsapi",
    "ratingsLink" : "http://www.greatschools.org/school/rating.page?state=WA&id=1536&s_cid=gsapi",
    "reviewsLink" : "http://www.greatschools.org/school/parentReviews.page?state=WA&id=1536&s_cid=gsapi",
    "schoolStatsLink" : "http://www.greatschools.org/modperl/achievement/WA/1536",
    "fax" : null,
    "enrollment" : 58,
    "parentRating" : 5,
    "gsRating" : 7,
    "lat" : 47.673534,
    "lon" : -122.39191
  }, {
    "gsId" : 3087,
    "name" : "Ae #2 (Decatur)",
    "type" : "public",
    "gradeRange" : "PK-5",
    "city" : "Seattle",
    "state" : "WA",
    "address" : "7711 43 Av NE, Seattle, WA  98115",
    "phone" : "(206) 252-5300",
    "website" : null,
    "ncesId" : "530771001253",
    "districtId" : "229",
    "overviewLink" : "http://www.greatschools.org/washington/seattle/3087-Ae-2-(Decatur)/?s_cid=gsapi",
    "ratingsLink" : "http://www.greatschools.org/school/rating.page?state=WA&id=3087&s_cid=gsapi",
    "reviewsLink" : "http://www.greatschools.org/school/parentReviews.page?state=WA&id=3087&s_cid=gsapi",
    "schoolStatsLink" : "http://www.greatschools.org/modperl/achievement/WA/3087",
    "fax" : null,
    "enrollment" : 54,
    "parentRating" : 5,
    "gsRating" : 9,
    "lat" : 47.68557,
    "lon" : -122.28251
  }, {
    "gsId" : 1609,
    "name" : "Aki Kurose Middle School",
    "type" : "public",
    "gradeRange" : "6-8",
    "city" : "Seattle",
    "state" : "WA",
    "address" : "3928 South Graham St, Seattle, WA  98118",
    "phone" : "(206) 252-7700",
    "website" : null,
    "ncesId" : "530771001249",
    "districtId" : "229",
    "overviewLink" : "http://www.greatschools.org/washington/seattle/1609-Aki-Kurose-Middle-School/?s_cid=gsapi",
    "ratingsLink" : "http://www.greatschools.org/school/rating.page?state=WA&id=1609&s_cid=gsapi",
    "reviewsLink" : "http://www.greatschools.org/school/parentReviews.page?state=WA&id=1609&s_cid=gsapi",
    "schoolStatsLink" : "http://www.greatschools.org/modperl/achievement/WA/1609",
    "fax" : null,
    "enrollment" : 167,
    "parentRating" : 4,
    "gsRating" : 5,
    "lat" : 47.546505,
    "lon" : -122.28249
  }, {
    "gsId" : 1537,
    "name" : "Alki Elementary School",
    "type" : "public",
    "gradeRange" : "PK-5",
    "city" : "Seattle",
    "state" : "WA",
    "address" : "3010 59 Av SW, Seattle, WA  98116",
    "phone" : "(206) 252-9050",
    "website" : null,
    "ncesId" : "530771001129",
    "districtId" : "229",
    "overviewLink" : "http://www.greatschools.org/washington/seattle/1537-Alki-Elementary-School/?s_cid=gsapi",
    "ratingsLink" : "http://www.greatschools.org/school/rating.page?state=WA&id=1537&s_cid=gsapi",
    "reviewsLink" : "http://www.greatschools.org/school/parentReviews.page?state=WA&id=1537&s_cid=gsapi",
    "schoolStatsLink" : "http://www.greatschools.org/modperl/achievement/WA/1537",
    "fax" : null,
    "enrollment" : 64,
    "parentRating" : 4,
    "gsRating" : 6,
    "lat" : 47.577354,
    "lon" : -122.40779
  }, {
    "gsId" : 1540,
    "name" : "Arbor Heights Elementary School",
    "type" : "public",
    "gradeRange" : "K-5",
    "city" : "Seattle",
    "state" : "WA",
    "address" : "3701 SW 104th St., Seattle, WA  98146",
    "phone" : "(206) 252-9250",
    "website" : "http://arborheightses.seattleschools.org",
    "ncesId" : "530771001135",
    "districtId" : "229",
    "overviewLink" : "http://www.greatschools.org/washington/seattle/1540-Arbor-Heights-Elementary-School/?s_cid=gsapi",
    "ratingsLink" : "http://www.greatschools.org/school/rating.page?state=WA&id=1540&s_cid=gsapi",
    "reviewsLink" : "http://www.greatschools.org/school/parentReviews.page?state=WA&id=1540&s_cid=gsapi",
    "schoolStatsLink" : "http://www.greatschools.org/modperl/achievement/WA/1540",
    "fax" : null,
    "enrollment" : 54,
    "parentRating" : 4,
    "gsRating" : 6,
    "lat" : 47.50951,
    "lon" : -122.378
  }, {
    "gsId" : 3944,
    "name" : "Arts & Academics Academy",
    "type" : "public",
    "gradeRange" : "9-12",
    "city" : "Seattle",
    "state" : "WA",
    "address" : "830 SW 116th St, Seattle, WA  98146",
    "phone" : "(206) 433-2311",
    "website" : null,
    "ncesId" : "530354003182",
    "districtId" : "108",
    "overviewLink" : "http://www.greatschools.org/washington/seattle/3944-Arts-&-Academics-Academy/?s_cid=gsapi",
    "ratingsLink" : "http://www.greatschools.org/school/rating.page?state=WA&id=3944&s_cid=gsapi",
    "reviewsLink" : "http://www.greatschools.org/school/parentReviews.page?state=WA&id=3944&s_cid=gsapi",
    "schoolStatsLink" : "http://www.greatschools.org/modperl/achievement/WA/3944",
    "fax" : null,
    "enrollment" : 59,
    "parentRating" : 3,
    "gsRating" : 2,
    "lat" : 47.500076,
    "lon" : -122.34542
  }, {
    "gsId" : 1553,
    "name" : "B F Day Elementary School",
    "type" : "public",
    "gradeRange" : "K-5",
    "city" : "Seattle",
    "state" : "WA",
    "address" : "3921 Linden Av North, Seattle, WA  98103",
    "phone" : "(206) 252-6010",
    "website" : "http://www.seattleschools.org/area/main/ShowSchool?sid=218",
    "ncesId" : "530771001157",
    "districtId" : "229",
    "overviewLink" : "http://www.greatschools.org/washington/seattle/1553-B-F-Day-Elementary-School/?s_cid=gsapi",
    "ratingsLink" : "http://www.greatschools.org/school/rating.page?state=WA&id=1553&s_cid=gsapi",
    "reviewsLink" : "http://www.greatschools.org/school/parentReviews.page?state=WA&id=1553&s_cid=gsapi",
    "schoolStatsLink" : "http://www.greatschools.org/modperl/achievement/WA/1553",
    "fax" : null,
    "enrollment" : 38,
    "parentRating" : 5,
    "gsRating" : 4,
    "lat" : 47.65474,
    "lon" : -122.34914
  }, {
    "gsId" : 1543,
    "name" : "Ballard High School",
    "type" : "public",
    "gradeRange" : "9-12",
    "city" : "Seattle",
    "state" : "WA",
    "address" : "1418 NW 65 St, Seattle, WA  98117",
    "phone" : "(206) 252-1000",
    "website" : null,
    "ncesId" : "530771001138",
    "districtId" : "229",
    "overviewLink" : "http://www.greatschools.org/washington/seattle/1543-Ballard-High-School/?s_cid=gsapi",
    "ratingsLink" : "http://www.greatschools.org/school/rating.page?state=WA&id=1543&s_cid=gsapi",
    "reviewsLink" : "http://www.greatschools.org/school/parentReviews.page?state=WA&id=1543&s_cid=gsapi",
    "schoolStatsLink" : "http://www.greatschools.org/modperl/achievement/WA/1543",
    "fax" : null,
    "enrollment" : 425,
    "parentRating" : 4,
    "gsRating" : 9,
    "lat" : 47.67689,
    "lon" : -122.374535
  }, {
    "gsId" : 1544,
    "name" : "Beacon Hill Elementary School",
    "type" : "public",
    "gradeRange" : "K-5",
    "city" : "Seattle",
    "state" : "WA",
    "address" : "2025 14 Av South, Seattle, WA  98144",
    "phone" : "(206) 252-2700",
    "website" : null,
    "ncesId" : "530771001140",
    "districtId" : "229",
    "overviewLink" : "http://www.greatschools.org/washington/seattle/1544-Beacon-Hill-Elementary-School/?s_cid=gsapi",
    "ratingsLink" : "http://www.greatschools.org/school/rating.page?state=WA&id=1544&s_cid=gsapi",
    "reviewsLink" : "http://www.greatschools.org/school/parentReviews.page?state=WA&id=1544&s_cid=gsapi",
    "schoolStatsLink" : "http://www.greatschools.org/modperl/achievement/WA/1544",
    "fax" : null,
    "enrollment" : 78,
    "parentRating" : 5,
    "gsRating" : 7,
    "lat" : 47.58502,
    "lon" : -122.31538
  }, {
    "gsId" : 710,
    "name" : "Beverly Park Elementary At Glendale",
    "type" : "public",
    "gradeRange" : "PK-6",
    "city" : "Seattle",
    "state" : "WA",
    "address" : "1201 South 104th St, Seattle, WA  98168",
    "phone" : "(206) 433-2508",
    "website" : null,
    "ncesId" : "530354000519",
    "districtId" : "108",
    "overviewLink" : "http://www.greatschools.org/washington/seattle/710-Beverly-Park-Elementary-At-Glendale/?s_cid=gsapi",
    "ratingsLink" : "http://www.greatschools.org/school/rating.page?state=WA&id=710&s_cid=gsapi",
    "reviewsLink" : "http://www.greatschools.org/school/parentReviews.page?state=WA&id=710&s_cid=gsapi",
    "schoolStatsLink" : "http://www.greatschools.org/modperl/achievement/WA/710",
    "fax" : null,
    "enrollment" : 62,
    "parentRating" : 3,
    "gsRating" : 2,
    "lat" : 47.509445,
    "lon" : -122.31748
  }, {
    "gsId" : 1484,
    "name" : "Black River High School",
    "type" : "public",
    "gradeRange" : "9-12",
    "city" : "Seattle",
    "state" : "WA",
    "address" : "7800 South 132nd St, Seattle, WA  98178",
    "phone" : "(425) 204-2100",
    "website" : null,
    "ncesId" : "530723001867",
    "districtId" : "217",
    "overviewLink" : "http://www.greatschools.org/washington/seattle/1484-Black-River-High-School/?s_cid=gsapi",
    "ratingsLink" : "http://www.greatschools.org/school/rating.page?state=WA&id=1484&s_cid=gsapi",
    "reviewsLink" : "http://www.greatschools.org/school/parentReviews.page?state=WA&id=1484&s_cid=gsapi",
    "schoolStatsLink" : "http://www.greatschools.org/modperl/achievement/WA/1484",
    "fax" : null,
    "enrollment" : 111,
    "parentRating" : 4,
    "gsRating" : 0,
    "lat" : 47.48474,
    "lon" : -122.23483
  }, {
    "gsId" : 1545,
    "name" : "Brighton Elementary School",
    "type" : "public",
    "gradeRange" : "PK-5",
    "city" : "Seattle",
    "state" : "WA",
    "address" : "6725 45th Ave S., Seattle, WA  98126",
    "phone" : "(206) 252-6770",
    "website" : "http://kinges.seattleschools.org/",
    "ncesId" : "530771001143",
    "districtId" : "229",
    "overviewLink" : "http://www.greatschools.org/washington/seattle/1545-Brighton-Elementary-School/?s_cid=gsapi",
    "ratingsLink" : "http://www.greatschools.org/school/rating.page?state=WA&id=1545&s_cid=gsapi",
    "reviewsLink" : "http://www.greatschools.org/school/parentReviews.page?state=WA&id=1545&s_cid=gsapi",
    "schoolStatsLink" : "http://www.greatschools.org/modperl/achievement/WA/1545",
    "fax" : null,
    "enrollment" : 44,
    "parentRating" : 5,
    "gsRating" : 3,
    "lat" : 47.54182,
    "lon" : -122.27652
  }, {
    "gsId" : 1546,
    "name" : "Broadview-Thomson Elementary School",
    "type" : "public",
    "gradeRange" : "PK-8",
    "city" : "Seattle",
    "state" : "WA",
    "address" : "13052 Greenwood Av North, Seattle, WA  98133",
    "phone" : "(206) 252-4080",
    "website" : "http://broadview",
    "ncesId" : "530771001145",
    "districtId" : "229",
    "overviewLink" : "http://www.greatschools.org/washington/seattle/1546-Broadview-Thomson-Elementary-School/?s_cid=gsapi",
    "ratingsLink" : "http://www.greatschools.org/school/rating.page?state=WA&id=1546&s_cid=gsapi",
    "reviewsLink" : "http://www.greatschools.org/school/parentReviews.page?state=WA&id=1546&s_cid=gsapi",
    "schoolStatsLink" : "http://www.greatschools.org/modperl/achievement/WA/1546",
    "fax" : null,
    "enrollment" : 59,
    "parentRating" : 3,
    "gsRating" : 6,
    "lat" : 47.72463,
    "lon" : -122.35437
  }, {
    "gsId" : 1547,
    "name" : "Bryant Elementary School",
    "type" : "public",
    "gradeRange" : "K-5",
    "city" : "Seattle",
    "state" : "WA",
    "address" : "3311 NE 60 St, Seattle, WA  98115",
    "phone" : "(206) 252-5200",
    "website" : "http://www.bryantschool.org",
    "ncesId" : "530771001146",
    "districtId" : "229",
    "overviewLink" : "http://www.greatschools.org/washington/seattle/1547-Bryant-Elementary-School/?s_cid=gsapi",
    "ratingsLink" : "http://www.greatschools.org/school/rating.page?state=WA&id=1547&s_cid=gsapi",
    "reviewsLink" : "http://www.greatschools.org/school/parentReviews.page?state=WA&id=1547&s_cid=gsapi",
    "schoolStatsLink" : "http://www.greatschools.org/modperl/achievement/WA/1547",
    "fax" : null,
    "enrollment" : 68,
    "parentRating" : 4,
    "gsRating" : 10,
    "lat" : 47.671703,
    "lon" : -122.292046
  }, {
    "gsId" : 1464,
    "name" : "Bryn Mawr Elementary School",
    "type" : "public",
    "gradeRange" : "K-5",
    "city" : "Seattle",
    "state" : "WA",
    "address" : "8212 South 118th St, Seattle, WA  98178",
    "phone" : "(425) 204-4158",
    "website" : null,
    "ncesId" : "530723001065",
    "districtId" : "217",
    "overviewLink" : "http://www.greatschools.org/washington/seattle/1464-Bryn-Mawr-Elementary-School/?s_cid=gsapi",
    "ratingsLink" : "http://www.greatschools.org/school/rating.page?state=WA&id=1464&s_cid=gsapi",
    "reviewsLink" : "http://www.greatschools.org/school/parentReviews.page?state=WA&id=1464&s_cid=gsapi",
    "schoolStatsLink" : "http://www.greatschools.org/modperl/achievement/WA/1464",
    "fax" : null,
    "enrollment" : 83,
    "parentRating" : 3,
    "gsRating" : 4,
    "lat" : 47.498074,
    "lon" : -122.22944
  }, {
    "gsId" : 1465,
    "name" : "Campbell Hill Elementary School",
    "type" : "public",
    "gradeRange" : "K-5",
    "city" : "Seattle",
    "state" : "WA",
    "address" : "6418 South 124th St, Seattle, WA  98178",
    "phone" : "(425) 204-4008",
    "website" : null,
    "ncesId" : "530723001066",
    "districtId" : "217",
    "overviewLink" : "http://www.greatschools.org/washington/seattle/1465-Campbell-Hill-Elementary-School/?s_cid=gsapi",
    "ratingsLink" : "http://www.greatschools.org/school/rating.page?state=WA&id=1465&s_cid=gsapi",
    "reviewsLink" : "http://www.greatschools.org/school/parentReviews.page?state=WA&id=1465&s_cid=gsapi",
    "schoolStatsLink" : "http://www.greatschools.org/modperl/achievement/WA/1465",
    "fax" : null,
    "enrollment" : 58,
    "parentRating" : 2,
    "gsRating" : 4,
    "lat" : 47.49243,
    "lon" : -122.252716
  }, {
    "gsId" : 5474,
    "name" : "Career Link",
    "type" : "public",
    "gradeRange" : "9-12",
    "city" : "Seattle",
    "state" : "WA",
    "address" : "6000 16th Ave SW, Seattle, WA  98106",
    "phone" : "(206) 433-2361",
    "website" : null,
    "ncesId" : "530354003224",
    "districtId" : "108",
    "overviewLink" : "http://www.greatschools.org/washington/seattle/5474-Career-Link/?s_cid=gsapi",
    "ratingsLink" : "http://www.greatschools.org/school/rating.page?state=WA&id=5474&s_cid=gsapi",
    "reviewsLink" : "http://www.greatschools.org/school/parentReviews.page?state=WA&id=5474&s_cid=gsapi",
    "schoolStatsLink" : "http://www.greatschools.org/modperl/achievement/WA/5474",
    "fax" : null,
    "enrollment" : 101,
    "parentRating" : 0,
    "gsRating" : 3,
    "lat" : 47.548775,
    "lon" : -122.35468
  }, {
    "gsId" : 712,
    "name" : "Cascade Middle School",
    "type" : "public",
    "gradeRange" : "7-8",
    "city" : "Seattle",
    "state" : "WA",
    "address" : "11212 10th Ave SW, Seattle, WA  98146",
    "phone" : "(206) 631-5500",
    "website" : null,
    "ncesId" : "530354000522",
    "districtId" : "108",
    "overviewLink" : "http://www.greatschools.org/washington/seattle/712-Cascade-Middle-School/?s_cid=gsapi",
    "ratingsLink" : "http://www.greatschools.org/school/rating.page?state=WA&id=712&s_cid=gsapi",
    "reviewsLink" : "http://www.greatschools.org/school/parentReviews.page?state=WA&id=712&s_cid=gsapi",
    "schoolStatsLink" : "http://www.greatschools.org/modperl/achievement/WA/712",
    "fax" : null,
    "enrollment" : 281,
    "parentRating" : 3,
    "gsRating" : 3,
    "lat" : 47.502247,
    "lon" : -122.346405
  }, {
    "gsId" : 1636,
    "name" : "Catharine Blaine K-8",
    "type" : "public",
    "gradeRange" : "K-8",
    "city" : "Seattle",
    "state" : "WA",
    "address" : "2550 34 Av West, Seattle, WA  98199",
    "phone" : "(206) 252-1920",
    "website" : null,
    "ncesId" : "530771002017",
    "districtId" : "229",
    "overviewLink" : "http://www.greatschools.org/washington/seattle/1636-Catharine-Blaine-K-8/?s_cid=gsapi",
    "ratingsLink" : "http://www.greatschools.org/school/rating.page?state=WA&id=1636&s_cid=gsapi",
    "reviewsLink" : "http://www.greatschools.org/school/parentReviews.page?state=WA&id=1636&s_cid=gsapi",
    "schoolStatsLink" : "http://www.greatschools.org/modperl/achievement/WA/1636",
    "fax" : null,
    "enrollment" : 57,
    "parentRating" : 4,
    "gsRating" : 9,
    "lat" : 47.64284,
    "lon" : -122.400345
  }, {
    "gsId" : 1548,
    "name" : "Chief Sealth High School",
    "type" : "public",
    "gradeRange" : "10-12",
    "city" : "Seattle",
    "state" : "WA",
    "address" : "2600 SW Thistle Street, Seattle, WA  98106",
    "phone" : "(206) 252-8550",
    "website" : null,
    "ncesId" : "530771001149",
    "districtId" : "229",
    "overviewLink" : "http://www.greatschools.org/washington/seattle/1548-Chief-Sealth-High-School/?s_cid=gsapi",
    "ratingsLink" : "http://www.greatschools.org/school/rating.page?state=WA&id=1548&s_cid=gsapi",
    "reviewsLink" : "http://www.greatschools.org/school/parentReviews.page?state=WA&id=1548&s_cid=gsapi",
    "schoolStatsLink" : "http://www.greatschools.org/modperl/achievement/WA/1548",
    "fax" : null,
    "enrollment" : 251,
    "parentRating" : 3,
    "gsRating" : 5,
    "lat" : 47.528446,
    "lon" : -122.36583
  }, {
    "gsId" : 3325,
    "name" : "Childhaven",
    "type" : "public",
    "gradeRange" : "PK-5",
    "city" : "Seattle",
    "state" : "WA",
    "address" : "302 Broadway Av, Seattle, WA  98122",
    "phone" : "(206) 252-0838",
    "website" : null,
    "ncesId" : "530771002636",
    "districtId" : "229",
    "overviewLink" : "http://www.greatschools.org/washington/seattle/3325-Childhaven/?s_cid=gsapi",
    "ratingsLink" : "http://www.greatschools.org/school/rating.page?state=WA&id=3325&s_cid=gsapi",
    "reviewsLink" : "http://www.greatschools.org/school/parentReviews.page?state=WA&id=3325&s_cid=gsapi",
    "schoolStatsLink" : "http://www.greatschools.org/modperl/achievement/WA/3325",
    "fax" : null,
    "enrollment" : 0,
    "parentRating" : 5,
    "gsRating" : 0,
    "lat" : 47.604614,
    "lon" : -122.32036
  }, {
    "gsId" : 1549,
    "name" : "Cleveland High School",
    "type" : "public",
    "gradeRange" : "9-12",
    "city" : "Seattle",
    "state" : "WA",
    "address" : "5511 15 Ave South, Seattle, WA  98108",
    "phone" : "(206) 252-7800",
    "website" : null,
    "ncesId" : "530771001150",
    "districtId" : "229",
    "overviewLink" : "http://www.greatschools.org/washington/seattle/1549-Cleveland-High-School/?s_cid=gsapi",
    "ratingsLink" : "http://www.greatschools.org/school/rating.page?state=WA&id=1549&s_cid=gsapi",
    "reviewsLink" : "http://www.greatschools.org/school/parentReviews.page?state=WA&id=1549&s_cid=gsapi",
    "schoolStatsLink" : "http://www.greatschools.org/modperl/achievement/WA/1549",
    "fax" : null,
    "enrollment" : 163,
    "parentRating" : 3,
    "gsRating" : 7,
    "lat" : 47.55231,
    "lon" : -122.31402
  }, {
    "gsId" : 1550,
    "name" : "Coe Elementary School",
    "type" : "public",
    "gradeRange" : "K-5",
    "city" : "Seattle",
    "state" : "WA",
    "address" : "2424 7 Av West, Seattle, WA  98119",
    "phone" : "(206) 252-2000",
    "website" : "http://www.seattleschools.org/schools/coe",
    "ncesId" : "530771001151",
    "districtId" : "229",
    "overviewLink" : "http://www.greatschools.org/washington/seattle/1550-Coe-Elementary-School/?s_cid=gsapi",
    "ratingsLink" : "http://www.greatschools.org/school/rating.page?state=WA&id=1550&s_cid=gsapi",
    "reviewsLink" : "http://www.greatschools.org/school/parentReviews.page?state=WA&id=1550&s_cid=gsapi",
    "schoolStatsLink" : "http://www.greatschools.org/modperl/achievement/WA/1550",
    "fax" : null,
    "enrollment" : 68,
    "parentRating" : 5,
    "gsRating" : 10,
    "lat" : 47.640797,
    "lon" : -122.36566
  }, {
    "gsId" : 1551,
    "name" : "Concord Elementary School",
    "type" : "public",
    "gradeRange" : "PK-5",
    "city" : "Seattle",
    "state" : "WA",
    "address" : "723 South Concord St, Seattle, WA  98108",
    "phone" : "(206) 252-2815",
    "website" : null,
    "ncesId" : "530771001154",
    "districtId" : "229",
    "overviewLink" : "http://www.greatschools.org/washington/seattle/1551-Concord-Elementary-School/?s_cid=gsapi",
    "ratingsLink" : "http://www.greatschools.org/school/rating.page?state=WA&id=1551&s_cid=gsapi",
    "reviewsLink" : "http://www.greatschools.org/school/parentReviews.page?state=WA&id=1551&s_cid=gsapi",
    "schoolStatsLink" : "http://www.greatschools.org/modperl/achievement/WA/1551",
    "fax" : null,
    "enrollment" : 39,
    "parentRating" : 3,
    "gsRating" : 5,
    "lat" : 47.523582,
    "lon" : -122.32452
  }, {
    "gsId" : 1542,
    "name" : "Daniel Bagley Elementary School",
    "type" : "public",
    "gradeRange" : "K-5",
    "city" : "Seattle",
    "state" : "WA",
    "address" : "7821 Stone Av North, Seattle, WA  98103",
    "phone" : "(206) 252-5110",
    "website" : "http://www.danielbagley.com",
    "ncesId" : "530771001137",
    "districtId" : "229",
    "overviewLink" : "http://www.greatschools.org/washington/seattle/1542-Daniel-Bagley-Elementary-School/?s_cid=gsapi",
    "ratingsLink" : "http://www.greatschools.org/school/rating.page?state=WA&id=1542&s_cid=gsapi",
    "reviewsLink" : "http://www.greatschools.org/school/parentReviews.page?state=WA&id=1542&s_cid=gsapi",
    "schoolStatsLink" : "http://www.greatschools.org/modperl/achievement/WA/1542",
    "fax" : null,
    "enrollment" : 56,
    "parentRating" : 5,
    "gsRating" : 10,
    "lat" : 47.686306,
    "lon" : -122.342285
  }, {
    "gsId" : 1554,
    "name" : "Dearborn Park Elementary School",
    "type" : "public",
    "gradeRange" : "K-5",
    "city" : "Seattle",
    "state" : "WA",
    "address" : "2820 South Orcas St, Seattle, WA  98108",
    "phone" : "(206) 252-6930",
    "website" : null,
    "ncesId" : "530771001158",
    "districtId" : "229",
    "overviewLink" : "http://www.greatschools.org/washington/seattle/1554-Dearborn-Park-Elementary-School/?s_cid=gsapi",
    "ratingsLink" : "http://www.greatschools.org/school/rating.page?state=WA&id=1554&s_cid=gsapi",
    "reviewsLink" : "http://www.greatschools.org/school/parentReviews.page?state=WA&id=1554&s_cid=gsapi",
    "schoolStatsLink" : "http://www.greatschools.org/modperl/achievement/WA/1554",
    "fax" : null,
    "enrollment" : 45,
    "parentRating" : 4,
    "gsRating" : 4,
    "lat" : 47.552334,
    "lon" : -122.296196
  }, {
    "gsId" : 1634,
    "name" : "Denny Middle School",
    "type" : "public",
    "gradeRange" : "6-8",
    "city" : "Seattle",
    "state" : "WA",
    "address" : "2601 SW Kenyon St, Seattle, WA  98126",
    "phone" : "(206) 252-9000",
    "website" : "http://www.dennyms.seattleschools.org/",
    "ncesId" : "530771001913",
    "districtId" : "229",
    "overviewLink" : "http://www.greatschools.org/washington/seattle/1634-Denny-Middle-School/?s_cid=gsapi",
    "ratingsLink" : "http://www.greatschools.org/school/rating.page?state=WA&id=1634&s_cid=gsapi",
    "reviewsLink" : "http://www.greatschools.org/school/parentReviews.page?state=WA&id=1634&s_cid=gsapi",
    "schoolStatsLink" : "http://www.greatschools.org/modperl/achievement/WA/1634",
    "fax" : null,
    "enrollment" : 259,
    "parentRating" : 3,
    "gsRating" : 6,
    "lat" : 47.527237,
    "lon" : -122.37036
  }, {
    "gsId" : 1489,
    "name" : "Dimmitt Middle School",
    "type" : "public",
    "gradeRange" : "6-8",
    "city" : "Seattle",
    "state" : "WA",
    "address" : "12320 80th Ave South, Seattle, WA  98178",
    "phone" : "(425) 204-2808",
    "website" : null,
    "ncesId" : "530723002564",
    "districtId" : "217",
    "overviewLink" : "http://www.greatschools.org/washington/seattle/1489-Dimmitt-Middle-School/?s_cid=gsapi",
    "ratingsLink" : "http://www.greatschools.org/school/rating.page?state=WA&id=1489&s_cid=gsapi",
    "reviewsLink" : "http://www.greatschools.org/school/parentReviews.page?state=WA&id=1489&s_cid=gsapi",
    "schoolStatsLink" : "http://www.greatschools.org/modperl/achievement/WA/1489",
    "fax" : null,
    "enrollment" : 295,
    "parentRating" : 3,
    "gsRating" : 4,
    "lat" : 47.492542,
    "lon" : -122.23231
  }, {
    "gsId" : 1555,
    "name" : "Dunlap Elementary School",
    "type" : "public",
    "gradeRange" : "PK-5",
    "city" : "Seattle",
    "state" : "WA",
    "address" : "4525 South Cloverdale St, Seattle, WA  98118",
    "phone" : "(206) 252-7000",
    "website" : null,
    "ncesId" : "530771001161",
    "districtId" : "229",
    "overviewLink" : "http://www.greatschools.org/washington/seattle/1555-Dunlap-Elementary-School/?s_cid=gsapi",
    "ratingsLink" : "http://www.greatschools.org/school/rating.page?state=WA&id=1555&s_cid=gsapi",
    "reviewsLink" : "http://www.greatschools.org/school/parentReviews.page?state=WA&id=1555&s_cid=gsapi",
    "schoolStatsLink" : "http://www.greatschools.org/modperl/achievement/WA/1555",
    "fax" : null,
    "enrollment" : 57,
    "parentRating" : 3,
    "gsRating" : 3,
    "lat" : 47.52517,
    "lon" : -122.27468
  }, {
    "gsId" : 1556,
    "name" : "Eckstein Middle School",
    "type" : "public",
    "gradeRange" : "6-8",
    "city" : "Seattle",
    "state" : "WA",
    "address" : "3003 NE 75 St, Seattle, WA  98115",
    "phone" : "(206) 252-5010",
    "website" : null,
    "ncesId" : "530771001162",
    "districtId" : "229",
    "overviewLink" : "http://www.greatschools.org/washington/seattle/1556-Eckstein-Middle-School/?s_cid=gsapi",
    "ratingsLink" : "http://www.greatschools.org/school/rating.page?state=WA&id=1556&s_cid=gsapi",
    "reviewsLink" : "http://www.greatschools.org/school/parentReviews.page?state=WA&id=1556&s_cid=gsapi",
    "schoolStatsLink" : "http://www.greatschools.org/modperl/achievement/WA/1556",
    "fax" : null,
    "enrollment" : 376,
    "parentRating" : 3,
    "gsRating" : 9,
    "lat" : 47.68164,
    "lon" : -122.29443
  }, {
    "gsId" : 3310,
    "name" : "Education Service Centers",
    "type" : "public",
    "gradeRange" : "6-12",
    "city" : "Seattle",
    "state" : "WA",
    "address" : "3100 South Alaska St, Seattle, WA  98108",
    "phone" : "(206) 252-6816",
    "website" : null,
    "ncesId" : "530771002634",
    "districtId" : "229",
    "overviewLink" : "http://www.greatschools.org/washington/seattle/3310-Education-Service-Centers/?s_cid=gsapi",
    "ratingsLink" : "http://www.greatschools.org/school/rating.page?state=WA&id=3310&s_cid=gsapi",
    "reviewsLink" : "http://www.greatschools.org/school/parentReviews.page?state=WA&id=3310&s_cid=gsapi",
    "schoolStatsLink" : "http://www.greatschools.org/modperl/achievement/WA/3310",
    "fax" : null,
    "enrollment" : 5,
    "parentRating" : 0,
    "gsRating" : 0,
    "lat" : 47.6942,
    "lon" : -122.34125
  }, {
    "gsId" : 1557,
    "name" : "Emerson Elementary School",
    "type" : "public",
    "gradeRange" : "K-5",
    "city" : "Seattle",
    "state" : "WA",
    "address" : "9709 60 Av South, Seattle, WA  98118",
    "phone" : "(206) 252-7100",
    "website" : null,
    "ncesId" : "530771001163",
    "districtId" : "229",
    "overviewLink" : "http://www.greatschools.org/washington/seattle/1557-Emerson-Elementary-School/?s_cid=gsapi",
    "ratingsLink" : "http://www.greatschools.org/school/rating.page?state=WA&id=1557&s_cid=gsapi",
    "reviewsLink" : "http://www.greatschools.org/school/parentReviews.page?state=WA&id=1557&s_cid=gsapi",
    "schoolStatsLink" : "http://www.greatschools.org/modperl/achievement/WA/1557",
    "fax" : null,
    "enrollment" : 48,
    "parentRating" : 3,
    "gsRating" : 2,
    "lat" : 47.51476,
    "lon" : -122.25875
  }, {
    "gsId" : 3520,
    "name" : "Evening School (Marshall)",
    "type" : "public",
    "gradeRange" : "9-12",
    "city" : "Seattle",
    "state" : "WA",
    "address" : "4400 Interlake Ave North, Seattle, WA  98103",
    "phone" : "(206) 252-4680",
    "website" : null,
    "ncesId" : "530771001113",
    "districtId" : "229",
    "overviewLink" : "http://www.greatschools.org/washington/seattle/3520-Evening-School-(Marshall)/?s_cid=gsapi",
    "ratingsLink" : "http://www.greatschools.org/school/rating.page?state=WA&id=3520&s_cid=gsapi",
    "reviewsLink" : "http://www.greatschools.org/school/parentReviews.page?state=WA&id=3520&s_cid=gsapi",
    "schoolStatsLink" : "http://www.greatschools.org/modperl/achievement/WA/3520",
    "fax" : null,
    "enrollment" : 0,
    "parentRating" : 0,
    "gsRating" : 0,
    "lat" : 47.660618,
    "lon" : -122.34062
  }, {
    "gsId" : 1558,
    "name" : "Fairmount Park Elementary",
    "type" : "public",
    "gradeRange" : "PK-5",
    "city" : "Seattle",
    "state" : "WA",
    "address" : "3800 SW Findlay St, Seattle, WA  98126",
    "phone" : "(206) 252-9300",
    "website" : "http://www.seattleschools.org/modules/cms/pages.phtml?pageid=197023&sessionid=b0ad9232548e65ee67c722b5bb88b466&t",
    "ncesId" : "530771001164",
    "districtId" : "229",
    "overviewLink" : "http://www.greatschools.org/washington/seattle/1558-Fairmount-Park-Elementary/?s_cid=gsapi",
    "ratingsLink" : "http://www.greatschools.org/school/rating.page?state=WA&id=1558&s_cid=gsapi",
    "reviewsLink" : "http://www.greatschools.org/school/parentReviews.page?state=WA&id=1558&s_cid=gsapi",
    "schoolStatsLink" : "http://www.greatschools.org/modperl/achievement/WA/1558",
    "fax" : null,
    "enrollment" : 157,
    "parentRating" : 3,
    "gsRating" : 0,
    "lat" : 47.552704,
    "lon" : -122.380295
  }, {
    "gsId" : 1559,
    "name" : "Franklin High School",
    "type" : "public",
    "gradeRange" : "9-12",
    "city" : "Seattle",
    "state" : "WA",
    "address" : "3013 South Mt Baker Bv, Seattle, WA  98144",
    "phone" : "(206) 252-6150",
    "website" : null,
    "ncesId" : "530771001168",
    "districtId" : "229",
    "overviewLink" : "http://www.greatschools.org/washington/seattle/1559-Franklin-High-School/?s_cid=gsapi",
    "ratingsLink" : "http://www.greatschools.org/school/rating.page?state=WA&id=1559&s_cid=gsapi",
    "reviewsLink" : "http://www.greatschools.org/school/parentReviews.page?state=WA&id=1559&s_cid=gsapi",
    "schoolStatsLink" : "http://www.greatschools.org/modperl/achievement/WA/1559",
    "fax" : null,
    "enrollment" : 358,
    "parentRating" : 4,
    "gsRating" : 6,
    "lat" : 47.57604,
    "lon" : -122.29314
  }, {
    "gsId" : 5895,
    "name" : "Game Design Schools",
    "type" : "public",
    "gradeRange" : "n/a",
    "city" : "Seattle",
    "state" : "WA",
    "address" : "33 Design Street, Seattle, WA  98102",
    "phone" : "(206) 777-5555",
    "website" : "http://game-designschools.com",
    "ncesId" : null,
    "districtId" : "257",
    "overviewLink" : "http://www.greatschools.org/washington/seattle/5895-Game-Design-Schools/?s_cid=gsapi",
    "ratingsLink" : "http://www.greatschools.org/school/rating.page?state=WA&id=5895&s_cid=gsapi",
    "reviewsLink" : "http://www.greatschools.org/school/parentReviews.page?state=WA&id=5895&s_cid=gsapi",
    "schoolStatsLink" : "http://www.greatschools.org/modperl/achievement/WA/5895",
    "fax" : null,
    "enrollment" : 2500,
    "parentRating" : 0,
    "gsRating" : 0,
    "lat" : 47.633823,
    "lon" : -122.32155
  }, {
    "gsId" : 1561,
    "name" : "Garfield High School",
    "type" : "public",
    "gradeRange" : "9-12",
    "city" : "Seattle",
    "state" : "WA",
    "address" : "400 23 Ave, Seattle, WA  98122",
    "phone" : "(206) 252-2270",
    "website" : null,
    "ncesId" : "530771001171",
    "districtId" : "229",
    "overviewLink" : "http://www.greatschools.org/washington/seattle/1561-Garfield-High-School/?s_cid=gsapi",
    "ratingsLink" : "http://www.greatschools.org/school/rating.page?state=WA&id=1561&s_cid=gsapi",
    "reviewsLink" : "http://www.greatschools.org/school/parentReviews.page?state=WA&id=1561&s_cid=gsapi",
    "schoolStatsLink" : "http://www.greatschools.org/modperl/achievement/WA/1561",
    "fax" : null,
    "enrollment" : 407,
    "parentRating" : 4,
    "gsRating" : 6,
    "lat" : 47.605743,
    "lon" : -122.30271
  }, {
    "gsId" : 1562,
    "name" : "Gatewood Elementary School",
    "type" : "public",
    "gradeRange" : "K-5",
    "city" : "Seattle",
    "state" : "WA",
    "address" : "4320 SW Myrtle St, Seattle, WA  98136",
    "phone" : "(206) 252-9400",
    "website" : null,
    "ncesId" : "530771001172",
    "districtId" : "229",
    "overviewLink" : "http://www.greatschools.org/washington/seattle/1562-Gatewood-Elementary-School/?s_cid=gsapi",
    "ratingsLink" : "http://www.greatschools.org/school/rating.page?state=WA&id=1562&s_cid=gsapi",
    "reviewsLink" : "http://www.greatschools.org/school/parentReviews.page?state=WA&id=1562&s_cid=gsapi",
    "schoolStatsLink" : "http://www.greatschools.org/modperl/achievement/WA/1562",
    "fax" : null,
    "enrollment" : 76,
    "parentRating" : 4,
    "gsRating" : 5,
    "lat" : 47.540207,
    "lon" : -122.388435
  }, {
    "gsId" : 1563,
    "name" : "Gatzert Elementary School",
    "type" : "public",
    "gradeRange" : "PK-5",
    "city" : "Seattle",
    "state" : "WA",
    "address" : "1301 East Yesler Wy, Seattle, WA  98122",
    "phone" : "(206) 252-2810",
    "website" : null,
    "ncesId" : "530771001173",
    "districtId" : "229",
    "overviewLink" : "http://www.greatschools.org/washington/seattle/1563-Gatzert-Elementary-School/?s_cid=gsapi",
    "ratingsLink" : "http://www.greatschools.org/school/rating.page?state=WA&id=1563&s_cid=gsapi",
    "reviewsLink" : "http://www.greatschools.org/school/parentReviews.page?state=WA&id=1563&s_cid=gsapi",
    "schoolStatsLink" : "http://www.greatschools.org/modperl/achievement/WA/1563",
    "fax" : null,
    "enrollment" : 50,
    "parentRating" : 5,
    "gsRating" : 3,
    "lat" : 47.60113,
    "lon" : -122.3155
  }, {
    "gsId" : 1564,
    "name" : "Graham Hill Elementary School",
    "type" : "public",
    "gradeRange" : "PK-5",
    "city" : "Seattle",
    "state" : "WA",
    "address" : "5149 South Graham St, Seattle, WA  98118",
    "phone" : "(206) 225-7140",
    "website" : null,
    "ncesId" : "530771001175",
    "districtId" : "229",
    "overviewLink" : "http://www.greatschools.org/washington/seattle/1564-Graham-Hill-Elementary-School/?s_cid=gsapi",
    "ratingsLink" : "http://www.greatschools.org/school/rating.page?state=WA&id=1564&s_cid=gsapi",
    "reviewsLink" : "http://www.greatschools.org/school/parentReviews.page?state=WA&id=1564&s_cid=gsapi",
    "schoolStatsLink" : "http://www.greatschools.org/modperl/achievement/WA/1564",
    "fax" : null,
    "enrollment" : 60,
    "parentRating" : 4,
    "gsRating" : 4,
    "lat" : 47.5457,
    "lon" : -122.26851
  }, {
    "gsId" : 1565,
    "name" : "Green Lake Elementary School",
    "type" : "public",
    "gradeRange" : "PK-5",
    "city" : "Seattle",
    "state" : "WA",
    "address" : "2400 North 65 St, Seattle, WA  98103",
    "phone" : "(206) 252-5320",
    "website" : null,
    "ncesId" : "530771001176",
    "districtId" : "229",
    "overviewLink" : "http://www.greatschools.org/washington/seattle/1565-Green-Lake-Elementary-School/?s_cid=gsapi",
    "ratingsLink" : "http://www.greatschools.org/school/rating.page?state=WA&id=1565&s_cid=gsapi",
    "reviewsLink" : "http://www.greatschools.org/school/parentReviews.page?state=WA&id=1565&s_cid=gsapi",
    "schoolStatsLink" : "http://www.greatschools.org/modperl/achievement/WA/1565",
    "fax" : null,
    "enrollment" : 41,
    "parentRating" : 4,
    "gsRating" : 8,
    "lat" : 47.676254,
    "lon" : -122.32839
  }, {
    "gsId" : 1566,
    "name" : "Greenwood Elementary School",
    "type" : "public",
    "gradeRange" : "PK-5",
    "city" : "Seattle",
    "state" : "WA",
    "address" : "144 NW 80 St, Seattle, WA  98117",
    "phone" : "(206) 252-1400",
    "website" : null,
    "ncesId" : "530771001177",
    "districtId" : "229",
    "overviewLink" : "http://www.greatschools.org/washington/seattle/1566-Greenwood-Elementary-School/?s_cid=gsapi",
    "ratingsLink" : "http://www.greatschools.org/school/rating.page?state=WA&id=1566&s_cid=gsapi",
    "reviewsLink" : "http://www.greatschools.org/school/parentReviews.page?state=WA&id=1566&s_cid=gsapi",
    "schoolStatsLink" : "http://www.greatschools.org/modperl/achievement/WA/1566",
    "fax" : null,
    "enrollment" : 29,
    "parentRating" : 5,
    "gsRating" : 7,
    "lat" : 47.687286,
    "lon" : -122.35991
  }, {
    "gsId" : 1567,
    "name" : "Hamilton International Middle School",
    "type" : "public",
    "gradeRange" : "6-8",
    "city" : "Seattle",
    "state" : "WA",
    "address" : "4400 Interlake Ave North, Seattle, WA  98103",
    "phone" : "(206) 252-5810",
    "website" : "http://www.seattleschools.org/schools/hamilton/index1.htm",
    "ncesId" : "530771001180",
    "districtId" : "229",
    "overviewLink" : "http://www.greatschools.org/washington/seattle/1567-Hamilton-International-Middle-School/?s_cid=gsapi",
    "ratingsLink" : "http://www.greatschools.org/school/rating.page?state=WA&id=1567&s_cid=gsapi",
    "reviewsLink" : "http://www.greatschools.org/school/parentReviews.page?state=WA&id=1567&s_cid=gsapi",
    "schoolStatsLink" : "http://www.greatschools.org/modperl/achievement/WA/1567",
    "fax" : null,
    "enrollment" : 289,
    "parentRating" : 3,
    "gsRating" : 10,
    "lat" : 47.656845,
    "lon" : -122.3378
  }, {
    "gsId" : 1639,
    "name" : "Hawthorne Elementary School",
    "type" : "public",
    "gradeRange" : "PK-5",
    "city" : "Seattle",
    "state" : "WA",
    "address" : "4100 39 Av South, Seattle, WA  98118",
    "phone" : "(206) 252-7210",
    "website" : null,
    "ncesId" : "530771002269",
    "districtId" : "229",
    "overviewLink" : "http://www.greatschools.org/washington/seattle/1639-Hawthorne-Elementary-School/?s_cid=gsapi",
    "ratingsLink" : "http://www.greatschools.org/school/rating.page?state=WA&id=1639&s_cid=gsapi",
    "reviewsLink" : "http://www.greatschools.org/school/parentReviews.page?state=WA&id=1639&s_cid=gsapi",
    "schoolStatsLink" : "http://www.greatschools.org/modperl/achievement/WA/1639",
    "fax" : null,
    "enrollment" : 1,
    "parentRating" : 4,
    "gsRating" : 2,
    "lat" : 47.56577,
    "lon" : -122.28337
  }, {
    "gsId" : 1572,
    "name" : "Hay Elementary School",
    "type" : "public",
    "gradeRange" : "K-5",
    "city" : "Seattle",
    "state" : "WA",
    "address" : "201 Garfield St, Seattle, WA  98109",
    "phone" : "(206) 252-2100",
    "website" : "http://www.seattleschools.org/schools/johnhay/",
    "ncesId" : "530771001192",
    "districtId" : "229",
    "overviewLink" : "http://www.greatschools.org/washington/seattle/1572-Hay-Elementary-School/?s_cid=gsapi",
    "ratingsLink" : "http://www.greatschools.org/school/rating.page?state=WA&id=1572&s_cid=gsapi",
    "reviewsLink" : "http://www.greatschools.org/school/parentReviews.page?state=WA&id=1572&s_cid=gsapi",
    "schoolStatsLink" : "http://www.greatschools.org/modperl/achievement/WA/1572",
    "fax" : null,
    "enrollment" : 78,
    "parentRating" : 4,
    "gsRating" : 10,
    "lat" : 47.632927,
    "lon" : -122.35222
  }, {
    "gsId" : 5466,
    "name" : "Health Sciences & Human Services",
    "type" : "public",
    "gradeRange" : "9-12",
    "city" : "Seattle",
    "state" : "WA",
    "address" : "830 SW 116th St, Seattle, WA  98146",
    "phone" : "(206) 631-6200",
    "website" : null,
    "ncesId" : "530354003164",
    "districtId" : "108",
    "overviewLink" : "http://www.greatschools.org/washington/seattle/5466-Health-Sciences-&-Human-Services/?s_cid=gsapi",
    "ratingsLink" : "http://www.greatschools.org/school/rating.page?state=WA&id=5466&s_cid=gsapi",
    "reviewsLink" : "http://www.greatschools.org/school/parentReviews.page?state=WA&id=5466&s_cid=gsapi",
    "schoolStatsLink" : "http://www.greatschools.org/modperl/achievement/WA/5466",
    "fax" : null,
    "enrollment" : 91,
    "parentRating" : 5,
    "gsRating" : 5,
    "lat" : 47.500076,
    "lon" : -122.34542
  }, {
    "gsId" : 1570,
    "name" : "Highland Park Elementary School",
    "type" : "public",
    "gradeRange" : "PK-5",
    "city" : "Seattle",
    "state" : "WA",
    "address" : "1012 SW Trenton St, Seattle, WA  98106",
    "phone" : "(206) 252-8240",
    "website" : null,
    "ncesId" : "530771001183",
    "districtId" : "229",
    "overviewLink" : "http://www.greatschools.org/washington/seattle/1570-Highland-Park-Elementary-School/?s_cid=gsapi",
    "ratingsLink" : "http://www.greatschools.org/school/rating.page?state=WA&id=1570&s_cid=gsapi",
    "reviewsLink" : "http://www.greatschools.org/school/parentReviews.page?state=WA&id=1570&s_cid=gsapi",
    "schoolStatsLink" : "http://www.greatschools.org/modperl/achievement/WA/1570",
    "fax" : null,
    "enrollment" : 68,
    "parentRating" : 3,
    "gsRating" : 2,
    "lat" : 47.525585,
    "lon" : -122.348656
  }, {
    "gsId" : 720,
    "name" : "Hilltop Elementary School",
    "type" : "public",
    "gradeRange" : "PK-6",
    "city" : "Seattle",
    "state" : "WA",
    "address" : "12250 24th Ave South, Seattle, WA  98168",
    "phone" : "(206) 433-2371",
    "website" : null,
    "ncesId" : "530354000532",
    "districtId" : "108",
    "overviewLink" : "http://www.greatschools.org/washington/seattle/720-Hilltop-Elementary-School/?s_cid=gsapi",
    "ratingsLink" : "http://www.greatschools.org/school/rating.page?state=WA&id=720&s_cid=gsapi",
    "reviewsLink" : "http://www.greatschools.org/school/parentReviews.page?state=WA&id=720&s_cid=gsapi",
    "schoolStatsLink" : "http://www.greatschools.org/modperl/achievement/WA/720",
    "fax" : null,
    "enrollment" : 63,
    "parentRating" : 4,
    "gsRating" : 3,
    "lat" : 47.492817,
    "lon" : -122.30095
  }, {
    "gsId" : 3522,
    "name" : "Home School Resource Center",
    "type" : "public",
    "gradeRange" : "K-12",
    "city" : "Seattle",
    "state" : "WA",
    "address" : "9250 14 Av NW, Seattle, WA  98117",
    "phone" : "(206) 252-4720",
    "website" : null,
    "ncesId" : "530771002635",
    "districtId" : "229",
    "overviewLink" : "http://www.greatschools.org/washington/seattle/3522-Home-School-Resource-Center/?s_cid=gsapi",
    "ratingsLink" : "http://www.greatschools.org/school/rating.page?state=WA&id=3522&s_cid=gsapi",
    "reviewsLink" : "http://www.greatschools.org/school/parentReviews.page?state=WA&id=3522&s_cid=gsapi",
    "schoolStatsLink" : "http://www.greatschools.org/modperl/achievement/WA/3522",
    "fax" : null,
    "enrollment" : 25,
    "parentRating" : 5,
    "gsRating" : 7,
    "lat" : 47.6942,
    "lon" : -122.34125
  }, {
    "gsId" : 3315,
    "name" : "Hutch School",
    "type" : "public",
    "gradeRange" : "PK-12",
    "city" : "Seattle",
    "state" : "WA",
    "address" : "527 Minor Av North, Seattle, WA  98109",
    "phone" : "(206) 252-0832",
    "website" : "www.hutchschool.org",
    "ncesId" : "530771002935",
    "districtId" : "229",
    "overviewLink" : "http://www.greatschools.org/washington/seattle/3315-Hutch-School/?s_cid=gsapi",
    "ratingsLink" : "http://www.greatschools.org/school/rating.page?state=WA&id=3315&s_cid=gsapi",
    "reviewsLink" : "http://www.greatschools.org/school/parentReviews.page?state=WA&id=3315&s_cid=gsapi",
    "schoolStatsLink" : "http://www.greatschools.org/modperl/achievement/WA/3315",
    "fax" : "(206) 667-1444",
    "enrollment" : 0,
    "parentRating" : 5,
    "gsRating" : 0,
    "lat" : 47.623512,
    "lon" : -122.33336
  }, {
    "gsId" : 1571,
    "name" : "Ingraham High School",
    "type" : "public",
    "gradeRange" : "9-12",
    "city" : "Seattle",
    "state" : "WA",
    "address" : "1819 North 135 St, Seattle, WA  98133",
    "phone" : "(206) 252-3880",
    "website" : null,
    "ncesId" : "530771001187",
    "districtId" : "229",
    "overviewLink" : "http://www.greatschools.org/washington/seattle/1571-Ingraham-High-School/?s_cid=gsapi",
    "ratingsLink" : "http://www.greatschools.org/school/rating.page?state=WA&id=1571&s_cid=gsapi",
    "reviewsLink" : "http://www.greatschools.org/school/parentReviews.page?state=WA&id=1571&s_cid=gsapi",
    "schoolStatsLink" : "http://www.greatschools.org/modperl/achievement/WA/1571",
    "fax" : null,
    "enrollment" : 225,
    "parentRating" : 4,
    "gsRating" : 7,
    "lat" : 47.725746,
    "lon" : -122.33691
  }, {
    "gsId" : 3233,
    "name" : "Interagency Programs",
    "type" : "public",
    "gradeRange" : "6-12",
    "city" : "Seattle",
    "state" : "WA",
    "address" : "3100 South Alaska St, Seattle, WA  98134",
    "phone" : "(206) 252-6816",
    "website" : null,
    "ncesId" : "530771001365",
    "districtId" : "229",
    "overviewLink" : "http://www.greatschools.org/washington/seattle/3233-Interagency-Programs/?s_cid=gsapi",
    "ratingsLink" : "http://www.greatschools.org/school/rating.page?state=WA&id=3233&s_cid=gsapi",
    "reviewsLink" : "http://www.greatschools.org/school/parentReviews.page?state=WA&id=3233&s_cid=gsapi",
    "schoolStatsLink" : "http://www.greatschools.org/modperl/achievement/WA/3233",
    "fax" : null,
    "enrollment" : 87,
    "parentRating" : 0,
    "gsRating" : 2,
    "lat" : 47.581463,
    "lon" : -122.33004
  }, {
    "gsId" : 5657,
    "name" : "Jane Addams Middle School",
    "type" : "public",
    "gradeRange" : "6-8",
    "city" : "Seattle",
    "state" : "WA",
    "address" : "11051 34 Ave NE, Seattle, WA  98125",
    "phone" : "(206) 252-4500",
    "website" : null,
    "ncesId" : "530771003271",
    "districtId" : "229",
    "overviewLink" : "http://www.greatschools.org/washington/seattle/5657-Jane-Addams-Middle-School/?s_cid=gsapi",
    "ratingsLink" : "http://www.greatschools.org/school/rating.page?state=WA&id=5657&s_cid=gsapi",
    "reviewsLink" : "http://www.greatschools.org/school/parentReviews.page?state=WA&id=5657&s_cid=gsapi",
    "schoolStatsLink" : "http://www.greatschools.org/modperl/achievement/WA/5657",
    "fax" : null,
    "enrollment" : 61,
    "parentRating" : 5,
    "gsRating" : 8,
    "lat" : 47.710453,
    "lon" : -122.29323
  }, {
    "gsId" : 1591,
    "name" : "John Muir Elementary School",
    "type" : "public",
    "gradeRange" : "K-5",
    "city" : "Seattle",
    "state" : "WA",
    "address" : "3301 South Horton St, Seattle, WA  98144",
    "phone" : "(206) 252-7400",
    "website" : null,
    "ncesId" : "530771001221",
    "districtId" : "229",
    "overviewLink" : "http://www.greatschools.org/washington/seattle/1591-John-Muir-Elementary-School/?s_cid=gsapi",
    "ratingsLink" : "http://www.greatschools.org/school/rating.page?state=WA&id=1591&s_cid=gsapi",
    "reviewsLink" : "http://www.greatschools.org/school/parentReviews.page?state=WA&id=1591&s_cid=gsapi",
    "schoolStatsLink" : "http://www.greatschools.org/modperl/achievement/WA/1591",
    "fax" : null,
    "enrollment" : 53,
    "parentRating" : 5,
    "gsRating" : 4,
    "lat" : 47.573364,
    "lon" : -122.290825
  }, {
    "gsId" : 1573,
    "name" : "John Rogers Elementary School",
    "type" : "public",
    "gradeRange" : "K-5",
    "city" : "Seattle",
    "state" : "WA",
    "address" : "4030 NE 109 St, Seattle, WA  98125",
    "phone" : "(206) 252-4320",
    "website" : null,
    "ncesId" : "530771001193",
    "districtId" : "229",
    "overviewLink" : "http://www.greatschools.org/washington/seattle/1573-John-Rogers-Elementary-School/?s_cid=gsapi",
    "ratingsLink" : "http://www.greatschools.org/school/rating.page?state=WA&id=1573&s_cid=gsapi",
    "reviewsLink" : "http://www.greatschools.org/school/parentReviews.page?state=WA&id=1573&s_cid=gsapi",
    "schoolStatsLink" : "http://www.greatschools.org/modperl/achievement/WA/1573",
    "fax" : null,
    "enrollment" : 23,
    "parentRating" : 4,
    "gsRating" : 7,
    "lat" : 47.707104,
    "lon" : -122.28467
  }, {
    "gsId" : 1576,
    "name" : "John Stanford International Elementary School",
    "type" : "public",
    "gradeRange" : "K-5",
    "city" : "Seattle",
    "state" : "WA",
    "address" : "4057 5 Av NE, Seattle, WA  98105",
    "phone" : "(206) 252-6080",
    "website" : null,
    "ncesId" : "530771001197",
    "districtId" : "229",
    "overviewLink" : "http://www.greatschools.org/washington/seattle/1576-John-Stanford-International-Elementary-School/?s_cid=gsapi",
    "ratingsLink" : "http://www.greatschools.org/school/rating.page?state=WA&id=1576&s_cid=gsapi",
    "reviewsLink" : "http://www.greatschools.org/school/parentReviews.page?state=WA&id=1576&s_cid=gsapi",
    "schoolStatsLink" : "http://www.greatschools.org/modperl/achievement/WA/1576",
    "fax" : null,
    "enrollment" : 52,
    "parentRating" : 4,
    "gsRating" : 10,
    "lat" : 47.65709,
    "lon" : -122.32387
  }, {
    "gsId" : 5930,
    "name" : "K-5 STEM at Boren",
    "type" : "public",
    "gradeRange" : "K, 5",
    "city" : "Seattle",
    "state" : "WA",
    "address" : "5950 Delridge way, Seattle, WA  ",
    "phone" : null,
    "website" : null,
    "ncesId" : null,
    "districtId" : null,
    "overviewLink" : "http://www.greatschools.org/washington/seattle/5930-K-5-STEM-At-Boren/?s_cid=gsapi",
    "ratingsLink" : "http://www.greatschools.org/school/rating.page?state=WA&id=5930&s_cid=gsapi",
    "reviewsLink" : "http://www.greatschools.org/school/parentReviews.page?state=WA&id=5930&s_cid=gsapi",
    "schoolStatsLink" : "http://www.greatschools.org/modperl/achievement/WA/5930",
    "fax" : null,
    "enrollment" : 0,
    "parentRating" : 0,
    "gsRating" : 5,
    "lat" : 47.54868,
    "lon" : -122.3622
  }, {
    "gsId" : 1560,
    "name" : "Kimball Elementary School",
    "type" : "public",
    "gradeRange" : "K-5",
    "city" : "Seattle",
    "state" : "WA",
    "address" : "3200 23 Av South, Seattle, WA  98144",
    "phone" : "(206) 252-7280",
    "website" : null,
    "ncesId" : "530771001169",
    "districtId" : "229",
    "overviewLink" : "http://www.greatschools.org/washington/seattle/1560-Kimball-Elementary-School/?s_cid=gsapi",
    "ratingsLink" : "http://www.greatschools.org/school/rating.page?state=WA&id=1560&s_cid=gsapi",
    "reviewsLink" : "http://www.greatschools.org/school/parentReviews.page?state=WA&id=1560&s_cid=gsapi",
    "schoolStatsLink" : "http://www.greatschools.org/modperl/achievement/WA/1560",
    "fax" : null,
    "enrollment" : 80,
    "parentRating" : 4,
    "gsRating" : 8,
    "lat" : 47.574425,
    "lon" : -122.30293
  }, {
    "gsId" : 3525,
    "name" : "King County Detention Center",
    "type" : "public",
    "gradeRange" : "6-12",
    "city" : "Seattle",
    "state" : "WA",
    "address" : "1211 East Alder Ms 1-F, Seattle, WA  98122",
    "phone" : "(206) 205-9422",
    "website" : null,
    "ncesId" : "530771002928",
    "districtId" : "229",
    "overviewLink" : "http://www.greatschools.org/washington/seattle/3525-King-County-Detention-Center/?s_cid=gsapi",
    "ratingsLink" : "http://www.greatschools.org/school/rating.page?state=WA&id=3525&s_cid=gsapi",
    "reviewsLink" : "http://www.greatschools.org/school/parentReviews.page?state=WA&id=3525&s_cid=gsapi",
    "schoolStatsLink" : "http://www.greatschools.org/modperl/achievement/WA/3525",
    "fax" : null,
    "enrollment" : 9,
    "parentRating" : 0,
    "gsRating" : 0,
    "lat" : 47.603912,
    "lon" : -122.31604
  }, {
    "gsId" : 1575,
    "name" : "Lafayette Elementary School",
    "type" : "public",
    "gradeRange" : "K-5",
    "city" : "Seattle",
    "state" : "WA",
    "address" : "2645 California Av SW, Seattle, WA  98116",
    "phone" : "(206) 252-9500",
    "website" : null,
    "ncesId" : "530771001195",
    "districtId" : "229",
    "overviewLink" : "http://www.greatschools.org/washington/seattle/1575-Lafayette-Elementary-School/?s_cid=gsapi",
    "ratingsLink" : "http://www.greatschools.org/school/rating.page?state=WA&id=1575&s_cid=gsapi",
    "reviewsLink" : "http://www.greatschools.org/school/parentReviews.page?state=WA&id=1575&s_cid=gsapi",
    "schoolStatsLink" : "http://www.greatschools.org/modperl/achievement/WA/1575",
    "fax" : null,
    "enrollment" : 82,
    "parentRating" : 3,
    "gsRating" : 9,
    "lat" : 47.57997,
    "lon" : -122.387146
  }, {
    "gsId" : 1472,
    "name" : "Lakeridge Elementary School",
    "type" : "public",
    "gradeRange" : "K-5",
    "city" : "Seattle",
    "state" : "WA",
    "address" : "7400 South 115th St, Seattle, WA  98178",
    "phone" : "(425) 204-4100",
    "website" : "http://www.rentonschools.us",
    "ncesId" : "530723001076",
    "districtId" : "217",
    "overviewLink" : "http://www.greatschools.org/washington/seattle/1472-Lakeridge-Elementary-School/?s_cid=gsapi",
    "ratingsLink" : "http://www.greatschools.org/school/rating.page?state=WA&id=1472&s_cid=gsapi",
    "reviewsLink" : "http://www.greatschools.org/school/parentReviews.page?state=WA&id=1472&s_cid=gsapi",
    "schoolStatsLink" : "http://www.greatschools.org/modperl/achievement/WA/1472",
    "fax" : "(425) 204-4145",
    "enrollment" : 72,
    "parentRating" : 3,
    "gsRating" : 3,
    "lat" : 47.49985,
    "lon" : -122.240036
  }, {
    "gsId" : 1577,
    "name" : "Laurelhurst Elementary School",
    "type" : "public",
    "gradeRange" : "K-5",
    "city" : "Seattle",
    "state" : "WA",
    "address" : "4530 46 Av NE, Seattle, WA  98105",
    "phone" : "(206) 252-5400",
    "website" : null,
    "ncesId" : "530771001198",
    "districtId" : "229",
    "overviewLink" : "http://www.greatschools.org/washington/seattle/1577-Laurelhurst-Elementary-School/?s_cid=gsapi",
    "ratingsLink" : "http://www.greatschools.org/school/rating.page?state=WA&id=1577&s_cid=gsapi",
    "reviewsLink" : "http://www.greatschools.org/school/parentReviews.page?state=WA&id=1577&s_cid=gsapi",
    "schoolStatsLink" : "http://www.greatschools.org/modperl/achievement/WA/1577",
    "fax" : null,
    "enrollment" : 67,
    "parentRating" : 4,
    "gsRating" : 10,
    "lat" : 47.66219,
    "lon" : -122.27784
  }, {
    "gsId" : 1578,
    "name" : "Lawton Elementary School",
    "type" : "public",
    "gradeRange" : "K-5",
    "city" : "Seattle",
    "state" : "WA",
    "address" : "4000 27 Av West, Seattle, WA  98199",
    "phone" : "(206) 252-2130",
    "website" : null,
    "ncesId" : "530771001199",
    "districtId" : "229",
    "overviewLink" : "http://www.greatschools.org/washington/seattle/1578-Lawton-Elementary-School/?s_cid=gsapi",
    "ratingsLink" : "http://www.greatschools.org/school/rating.page?state=WA&id=1578&s_cid=gsapi",
    "reviewsLink" : "http://www.greatschools.org/school/parentReviews.page?state=WA&id=1578&s_cid=gsapi",
    "schoolStatsLink" : "http://www.greatschools.org/modperl/achievement/WA/1578",
    "fax" : null,
    "enrollment" : 65,
    "parentRating" : 4,
    "gsRating" : 10,
    "lat" : 47.657097,
    "lon" : -122.390495
  }, {
    "gsId" : 1579,
    "name" : "Leschi Elementary School",
    "type" : "public",
    "gradeRange" : "K-5",
    "city" : "Seattle",
    "state" : "WA",
    "address" : "135 32 Av, Seattle, WA  98122",
    "phone" : "(206) 252-2950",
    "website" : null,
    "ncesId" : "530771001201",
    "districtId" : "229",
    "overviewLink" : "http://www.greatschools.org/washington/seattle/1579-Leschi-Elementary-School/?s_cid=gsapi",
    "ratingsLink" : "http://www.greatschools.org/school/rating.page?state=WA&id=1579&s_cid=gsapi",
    "reviewsLink" : "http://www.greatschools.org/school/parentReviews.page?state=WA&id=1579&s_cid=gsapi",
    "schoolStatsLink" : "http://www.greatschools.org/modperl/achievement/WA/1579",
    "fax" : null,
    "enrollment" : 58,
    "parentRating" : 5,
    "gsRating" : 3,
    "lat" : 47.60222,
    "lon" : -122.291626
  }, {
    "gsId" : 1580,
    "name" : "Lowell Elementary School",
    "type" : "public",
    "gradeRange" : "PK-5",
    "city" : "Seattle",
    "state" : "WA",
    "address" : "1058 East Mercer St, Seattle, WA  98102",
    "phone" : "(206) 252-3020",
    "website" : null,
    "ncesId" : "530771001205",
    "districtId" : "229",
    "overviewLink" : "http://www.greatschools.org/washington/seattle/1580-Lowell-Elementary-School/?s_cid=gsapi",
    "ratingsLink" : "http://www.greatschools.org/school/rating.page?state=WA&id=1580&s_cid=gsapi",
    "reviewsLink" : "http://www.greatschools.org/school/parentReviews.page?state=WA&id=1580&s_cid=gsapi",
    "schoolStatsLink" : "http://www.greatschools.org/modperl/achievement/WA/1580",
    "fax" : null,
    "enrollment" : 118,
    "parentRating" : 4,
    "gsRating" : 2,
    "lat" : 47.62481,
    "lon" : -122.31841
  }, {
    "gsId" : 1581,
    "name" : "Loyal Heights Elementary School",
    "type" : "public",
    "gradeRange" : "K-5",
    "city" : "Seattle",
    "state" : "WA",
    "address" : "2511 NW 80 St, Seattle, WA  98117",
    "phone" : "(206) 252-1500",
    "website" : null,
    "ncesId" : "530771001206",
    "districtId" : "229",
    "overviewLink" : "http://www.greatschools.org/washington/seattle/1581-Loyal-Heights-Elementary-School/?s_cid=gsapi",
    "ratingsLink" : "http://www.greatschools.org/school/rating.page?state=WA&id=1581&s_cid=gsapi",
    "reviewsLink" : "http://www.greatschools.org/school/parentReviews.page?state=WA&id=1581&s_cid=gsapi",
    "schoolStatsLink" : "http://www.greatschools.org/modperl/achievement/WA/1581",
    "fax" : null,
    "enrollment" : 55,
    "parentRating" : 5,
    "gsRating" : 10,
    "lat" : 47.686466,
    "lon" : -122.38929
  }, {
    "gsId" : 1582,
    "name" : "Madison Middle School",
    "type" : "public",
    "gradeRange" : "6-8",
    "city" : "Seattle",
    "state" : "WA",
    "address" : "3429 45th Ave SW, Seattle, WA  98116",
    "phone" : "(206) 252-9200",
    "website" : null,
    "ncesId" : "530771001207",
    "districtId" : "229",
    "overviewLink" : "http://www.greatschools.org/washington/seattle/1582-Madison-Middle-School/?s_cid=gsapi",
    "ratingsLink" : "http://www.greatschools.org/school/rating.page?state=WA&id=1582&s_cid=gsapi",
    "reviewsLink" : "http://www.greatschools.org/school/parentReviews.page?state=WA&id=1582&s_cid=gsapi",
    "schoolStatsLink" : "http://www.greatschools.org/modperl/achievement/WA/1582",
    "fax" : null,
    "enrollment" : 322,
    "parentRating" : 4,
    "gsRating" : 8,
    "lat" : 47.572914,
    "lon" : -122.39028
  }, {
    "gsId" : 1588,
    "name" : "Madrona K-8",
    "type" : "public",
    "gradeRange" : "PK-8",
    "city" : "Seattle",
    "state" : "WA",
    "address" : "1121 33 Av, Seattle, WA  98122",
    "phone" : "(206) 252-3100",
    "website" : null,
    "ncesId" : "530771001216",
    "districtId" : "229",
    "overviewLink" : "http://www.greatschools.org/washington/seattle/1588-Madrona-K-8/?s_cid=gsapi",
    "ratingsLink" : "http://www.greatschools.org/school/rating.page?state=WA&id=1588&s_cid=gsapi",
    "reviewsLink" : "http://www.greatschools.org/school/parentReviews.page?state=WA&id=1588&s_cid=gsapi",
    "schoolStatsLink" : "http://www.greatschools.org/modperl/achievement/WA/1588",
    "fax" : null,
    "enrollment" : 45,
    "parentRating" : 4,
    "gsRating" : 2,
    "lat" : 47.612293,
    "lon" : -122.29089
  }, {
    "gsId" : 3148,
    "name" : "Manhattan Learning Center",
    "type" : "public",
    "gradeRange" : "7-12",
    "city" : "Seattle",
    "state" : "WA",
    "address" : "440 South 186th St, Seattle, WA  98148",
    "phone" : "(206) 631-7630",
    "website" : "http://www.hsd401.org/ourschools/altprograms/choice.htm",
    "ncesId" : "530354002640",
    "districtId" : "108",
    "overviewLink" : "http://www.greatschools.org/washington/seattle/3148-Manhattan-Learning-Center/?s_cid=gsapi",
    "ratingsLink" : "http://www.greatschools.org/school/rating.page?state=WA&id=3148&s_cid=gsapi",
    "reviewsLink" : "http://www.greatschools.org/school/parentReviews.page?state=WA&id=3148&s_cid=gsapi",
    "schoolStatsLink" : "http://www.greatschools.org/modperl/achievement/WA/3148",
    "fax" : "(206) 439-4442",
    "enrollment" : 49,
    "parentRating" : 4,
    "gsRating" : 5,
    "lat" : 47.43701,
    "lon" : -122.328125
  }, {
    "gsId" : 1583,
    "name" : "Maple Elementary School",
    "type" : "public",
    "gradeRange" : "K-5",
    "city" : "Seattle",
    "state" : "WA",
    "address" : "4925 Corson Av South, Seattle, WA  98108",
    "phone" : "(206) 252-8310",
    "website" : null,
    "ncesId" : "530771001209",
    "districtId" : "229",
    "overviewLink" : "http://www.greatschools.org/washington/seattle/1583-Maple-Elementary-School/?s_cid=gsapi",
    "ratingsLink" : "http://www.greatschools.org/school/rating.page?state=WA&id=1583&s_cid=gsapi",
    "reviewsLink" : "http://www.greatschools.org/school/parentReviews.page?state=WA&id=1583&s_cid=gsapi",
    "schoolStatsLink" : "http://www.greatschools.org/modperl/achievement/WA/1583",
    "fax" : null,
    "enrollment" : 87,
    "parentRating" : 5,
    "gsRating" : 9,
    "lat" : 47.55799,
    "lon" : -122.31889
  }, {
    "gsId" : 5658,
    "name" : "Mc Donald Elementary School",
    "type" : "public",
    "gradeRange" : "K-5",
    "city" : "Seattle",
    "state" : "WA",
    "address" : "144 NE 54th Street, Seattle, WA  98103",
    "phone" : "(206) 252-5325",
    "website" : "http://www.mcdonaldpta.org",
    "ncesId" : "530771003332",
    "districtId" : "229",
    "overviewLink" : "http://www.greatschools.org/washington/seattle/5658-Mc-Donald-Elementary-School/?s_cid=gsapi",
    "ratingsLink" : "http://www.greatschools.org/school/rating.page?state=WA&id=5658&s_cid=gsapi",
    "reviewsLink" : "http://www.greatschools.org/school/parentReviews.page?state=WA&id=5658&s_cid=gsapi",
    "schoolStatsLink" : "http://www.greatschools.org/modperl/achievement/WA/5658",
    "fax" : null,
    "enrollment" : 1,
    "parentRating" : 5,
    "gsRating" : 8,
    "lat" : 47.660618,
    "lon" : -122.34062
  }, {
    "gsId" : 1586,
    "name" : "McGilvra Elementary School",
    "type" : "public",
    "gradeRange" : "K-5",
    "city" : "Seattle",
    "state" : "WA",
    "address" : "1617 38 Avenue East, Seattle, WA  98112",
    "phone" : "(206) 252-3160",
    "website" : "http://mcgilvraes.seattleschools.org",
    "ncesId" : "530771001214",
    "districtId" : "229",
    "overviewLink" : "http://www.greatschools.org/washington/seattle/1586-McGilvra-Elementary-School/?s_cid=gsapi",
    "ratingsLink" : "http://www.greatschools.org/school/rating.page?state=WA&id=1586&s_cid=gsapi",
    "reviewsLink" : "http://www.greatschools.org/school/parentReviews.page?state=WA&id=1586&s_cid=gsapi",
    "schoolStatsLink" : "http://www.greatschools.org/modperl/achievement/WA/1586",
    "fax" : "(206) 252-3161",
    "enrollment" : 40,
    "parentRating" : 4,
    "gsRating" : 7,
    "lat" : 47.633987,
    "lon" : -122.28482
  }, {
    "gsId" : 1585,
    "name" : "Mcclure Middle School",
    "type" : "public",
    "gradeRange" : "6-8",
    "city" : "Seattle",
    "state" : "WA",
    "address" : "1915 1 Av West, Seattle, WA  98119",
    "phone" : "(206) 252-1900",
    "website" : null,
    "ncesId" : "530771001212",
    "districtId" : "229",
    "overviewLink" : "http://www.greatschools.org/washington/seattle/1585-Mcclure-Middle-School/?s_cid=gsapi",
    "ratingsLink" : "http://www.greatschools.org/school/rating.page?state=WA&id=1585&s_cid=gsapi",
    "reviewsLink" : "http://www.greatschools.org/school/parentReviews.page?state=WA&id=1585&s_cid=gsapi",
    "schoolStatsLink" : "http://www.greatschools.org/modperl/achievement/WA/1585",
    "fax" : null,
    "enrollment" : 185,
    "parentRating" : 3,
    "gsRating" : 8,
    "lat" : 47.636757,
    "lon" : -122.358574
  }, {
    "gsId" : 1541,
    "name" : "Mercer Middle School",
    "type" : "public",
    "gradeRange" : "6-8",
    "city" : "Seattle",
    "state" : "WA",
    "address" : "1600 South Columbian Wy, Seattle, WA  98108",
    "phone" : "(206) 252-8000",
    "website" : null,
    "ncesId" : "530771001136",
    "districtId" : "229",
    "overviewLink" : "http://www.greatschools.org/washington/seattle/1541-Mercer-Middle-School/?s_cid=gsapi",
    "ratingsLink" : "http://www.greatschools.org/school/rating.page?state=WA&id=1541&s_cid=gsapi",
    "reviewsLink" : "http://www.greatschools.org/school/parentReviews.page?state=WA&id=1541&s_cid=gsapi",
    "schoolStatsLink" : "http://www.greatschools.org/modperl/achievement/WA/1541",
    "fax" : null,
    "enrollment" : 279,
    "parentRating" : 4,
    "gsRating" : 8,
    "lat" : 47.56415,
    "lon" : -122.31211
  }, {
    "gsId" : 1642,
    "name" : "Middle College High School",
    "type" : "public",
    "gradeRange" : "9-12",
    "city" : "Seattle",
    "state" : "WA",
    "address" : "401 NE Northgate Wy, Seattle, WA  98125",
    "phone" : "(206) 252-4785",
    "website" : null,
    "ncesId" : "530771002349",
    "districtId" : "229",
    "overviewLink" : "http://www.greatschools.org/washington/seattle/1642-Middle-College-High-School/?s_cid=gsapi",
    "ratingsLink" : "http://www.greatschools.org/school/rating.page?state=WA&id=1642&s_cid=gsapi",
    "reviewsLink" : "http://www.greatschools.org/school/parentReviews.page?state=WA&id=1642&s_cid=gsapi",
    "schoolStatsLink" : "http://www.greatschools.org/modperl/achievement/WA/1642",
    "fax" : null,
    "enrollment" : 91,
    "parentRating" : 0,
    "gsRating" : 5,
    "lat" : 47.6942,
    "lon" : -122.34125
  }, {
    "gsId" : 1590,
    "name" : "Montlake Elementary School",
    "type" : "public",
    "gradeRange" : "K-5",
    "city" : "Seattle",
    "state" : "WA",
    "address" : "2409 22 Av East, Seattle, WA  98112",
    "phone" : "(206) 252-3300",
    "website" : null,
    "ncesId" : "530771001219",
    "districtId" : "229",
    "overviewLink" : "http://www.greatschools.org/washington/seattle/1590-Montlake-Elementary-School/?s_cid=gsapi",
    "ratingsLink" : "http://www.greatschools.org/school/rating.page?state=WA&id=1590&s_cid=gsapi",
    "reviewsLink" : "http://www.greatschools.org/school/parentReviews.page?state=WA&id=1590&s_cid=gsapi",
    "schoolStatsLink" : "http://www.greatschools.org/modperl/achievement/WA/1590",
    "fax" : null,
    "enrollment" : 39,
    "parentRating" : 4,
    "gsRating" : 9,
    "lat" : 47.640644,
    "lon" : -122.30425
  }, {
    "gsId" : 727,
    "name" : "Mount View Elementary School",
    "type" : "public",
    "gradeRange" : "PK-6",
    "city" : "Seattle",
    "state" : "WA",
    "address" : "10811 12th Ave SW, Seattle, WA  98146",
    "phone" : "(206) 631-4500",
    "website" : null,
    "ncesId" : "530354000539",
    "districtId" : "108",
    "overviewLink" : "http://www.greatschools.org/washington/seattle/727-Mount-View-Elementary-School/?s_cid=gsapi",
    "ratingsLink" : "http://www.greatschools.org/school/rating.page?state=WA&id=727&s_cid=gsapi",
    "reviewsLink" : "http://www.greatschools.org/school/parentReviews.page?state=WA&id=727&s_cid=gsapi",
    "schoolStatsLink" : "http://www.greatschools.org/modperl/achievement/WA/727",
    "fax" : null,
    "enrollment" : 80,
    "parentRating" : 3,
    "gsRating" : 3,
    "lat" : 47.5064,
    "lon" : -122.35082
  }, {
    "gsId" : 1592,
    "name" : "Nathan Hale High School",
    "type" : "public",
    "gradeRange" : "9-12",
    "city" : "Seattle",
    "state" : "WA",
    "address" : "10750 30 Av NE, Seattle, WA  98125",
    "phone" : "(206) 252-3680",
    "website" : null,
    "ncesId" : "530771001222",
    "districtId" : "229",
    "overviewLink" : "http://www.greatschools.org/washington/seattle/1592-Nathan-Hale-High-School/?s_cid=gsapi",
    "ratingsLink" : "http://www.greatschools.org/school/rating.page?state=WA&id=1592&s_cid=gsapi",
    "reviewsLink" : "http://www.greatschools.org/school/parentReviews.page?state=WA&id=1592&s_cid=gsapi",
    "schoolStatsLink" : "http://www.greatschools.org/modperl/achievement/WA/1592",
    "fax" : null,
    "enrollment" : 258,
    "parentRating" : 4,
    "gsRating" : 8,
    "lat" : 47.707684,
    "lon" : -122.29467
  }, {
    "gsId" : 3709,
    "name" : "New Start",
    "type" : "public",
    "gradeRange" : "9-12",
    "city" : "Seattle",
    "state" : "WA",
    "address" : "614 SW 120th St, Seattle, WA  98146",
    "phone" : "(206) 433-8760",
    "website" : null,
    "ncesId" : "530354002967",
    "districtId" : "108",
    "overviewLink" : "http://www.greatschools.org/washington/seattle/3709-New-Start/?s_cid=gsapi",
    "ratingsLink" : "http://www.greatschools.org/school/rating.page?state=WA&id=3709&s_cid=gsapi",
    "reviewsLink" : "http://www.greatschools.org/school/parentReviews.page?state=WA&id=3709&s_cid=gsapi",
    "schoolStatsLink" : "http://www.greatschools.org/modperl/achievement/WA/3709",
    "fax" : null,
    "enrollment" : 37,
    "parentRating" : 5,
    "gsRating" : 2,
    "lat" : 47.49593,
    "lon" : -122.34261
  }, {
    "gsId" : 1593,
    "name" : "North Beach Elementary School",
    "type" : "public",
    "gradeRange" : "K-5",
    "city" : "Seattle",
    "state" : "WA",
    "address" : "9018 24 Av NW, Seattle, WA  98117",
    "phone" : "(206) 252-1510",
    "website" : "http://northbeachelementary.org",
    "ncesId" : "530771001223",
    "districtId" : "229",
    "overviewLink" : "http://www.greatschools.org/washington/seattle/1593-North-Beach-Elementary-School/?s_cid=gsapi",
    "ratingsLink" : "http://www.greatschools.org/school/rating.page?state=WA&id=1593&s_cid=gsapi",
    "reviewsLink" : "http://www.greatschools.org/school/parentReviews.page?state=WA&id=1593&s_cid=gsapi",
    "schoolStatsLink" : "http://www.greatschools.org/modperl/achievement/WA/1593",
    "fax" : null,
    "enrollment" : 46,
    "parentRating" : 4,
    "gsRating" : 10,
    "lat" : 47.69481,
    "lon" : -122.387115
  }, {
    "gsId" : 1594,
    "name" : "Northgate Elementary School",
    "type" : "public",
    "gradeRange" : "PK-5",
    "city" : "Seattle",
    "state" : "WA",
    "address" : "11725 1 Av NE, Seattle, WA  98125",
    "phone" : "(206) 252-4180",
    "website" : null,
    "ncesId" : "530771001225",
    "districtId" : "229",
    "overviewLink" : "http://www.greatschools.org/washington/seattle/1594-Northgate-Elementary-School/?s_cid=gsapi",
    "ratingsLink" : "http://www.greatschools.org/school/rating.page?state=WA&id=1594&s_cid=gsapi",
    "reviewsLink" : "http://www.greatschools.org/school/parentReviews.page?state=WA&id=1594&s_cid=gsapi",
    "schoolStatsLink" : "http://www.greatschools.org/modperl/achievement/WA/1594",
    "fax" : null,
    "enrollment" : 36,
    "parentRating" : 4,
    "gsRating" : 2,
    "lat" : 47.714752,
    "lon" : -122.329315
  }, {
    "gsId" : 1595,
    "name" : "Nova High School",
    "type" : "public",
    "gradeRange" : "9-12",
    "city" : "Seattle",
    "state" : "WA",
    "address" : "2410 East Cherry St, Seattle, WA  98122",
    "phone" : "(206) 252-3500",
    "website" : null,
    "ncesId" : "530771001226",
    "districtId" : "229",
    "overviewLink" : "http://www.greatschools.org/washington/seattle/1595-Nova-High-School/?s_cid=gsapi",
    "ratingsLink" : "http://www.greatschools.org/school/rating.page?state=WA&id=1595&s_cid=gsapi",
    "reviewsLink" : "http://www.greatschools.org/school/parentReviews.page?state=WA&id=1595&s_cid=gsapi",
    "schoolStatsLink" : "http://www.greatschools.org/modperl/achievement/WA/1595",
    "fax" : null,
    "enrollment" : 77,
    "parentRating" : 4,
    "gsRating" : 4,
    "lat" : 47.60445,
    "lon" : -122.30631
  }, {
    "gsId" : 1596,
    "name" : "Olympic Hills Elementary School",
    "type" : "public",
    "gradeRange" : "PK-5",
    "city" : "Seattle",
    "state" : "WA",
    "address" : "13018 20 Av NE, Seattle, WA  98125",
    "phone" : "(206) 252-4300",
    "website" : null,
    "ncesId" : "530771001228",
    "districtId" : "229",
    "overviewLink" : "http://www.greatschools.org/washington/seattle/1596-Olympic-Hills-Elementary-School/?s_cid=gsapi",
    "ratingsLink" : "http://www.greatschools.org/school/rating.page?state=WA&id=1596&s_cid=gsapi",
    "reviewsLink" : "http://www.greatschools.org/school/parentReviews.page?state=WA&id=1596&s_cid=gsapi",
    "schoolStatsLink" : "http://www.greatschools.org/modperl/achievement/WA/1596",
    "fax" : null,
    "enrollment" : 33,
    "parentRating" : 4,
    "gsRating" : 5,
    "lat" : 47.723957,
    "lon" : -122.30696
  }, {
    "gsId" : 1597,
    "name" : "Olympic View Elementary School",
    "type" : "public",
    "gradeRange" : "K-5",
    "city" : "Seattle",
    "state" : "WA",
    "address" : "504 NE 95 St, Seattle, WA  98115",
    "phone" : "(206) 252-5500",
    "website" : "http://www.seattleschools.org/schools/olyview/",
    "ncesId" : "530771001229",
    "districtId" : "229",
    "overviewLink" : "http://www.greatschools.org/washington/seattle/1597-Olympic-View-Elementary-School/?s_cid=gsapi",
    "ratingsLink" : "http://www.greatschools.org/school/rating.page?state=WA&id=1597&s_cid=gsapi",
    "reviewsLink" : "http://www.greatschools.org/school/parentReviews.page?state=WA&id=1597&s_cid=gsapi",
    "schoolStatsLink" : "http://www.greatschools.org/modperl/achievement/WA/1597",
    "fax" : null,
    "enrollment" : 76,
    "parentRating" : 5,
    "gsRating" : 7,
    "lat" : 47.698162,
    "lon" : -122.32112
  }, {
    "gsId" : 3150,
    "name" : "Orca (Columbia)",
    "type" : "public",
    "gradeRange" : "K-8",
    "city" : "Seattle",
    "state" : "WA",
    "address" : "5215 46 Ave South, Seattle, WA  98118",
    "phone" : "(206) 252-6900",
    "website" : null,
    "ncesId" : "530771002231",
    "districtId" : "229",
    "overviewLink" : "http://www.greatschools.org/washington/seattle/3150-Orca-(Columbia)/?s_cid=gsapi",
    "ratingsLink" : "http://www.greatschools.org/school/rating.page?state=WA&id=3150&s_cid=gsapi",
    "reviewsLink" : "http://www.greatschools.org/school/parentReviews.page?state=WA&id=3150&s_cid=gsapi",
    "schoolStatsLink" : "http://www.greatschools.org/modperl/achievement/WA/3150",
    "fax" : null,
    "enrollment" : 60,
    "parentRating" : 4,
    "gsRating" : 5,
    "lat" : 47.554585,
    "lon" : -122.27584
  }, {
    "gsId" : 3226,
    "name" : "Pathfinder K-8",
    "type" : "public",
    "gradeRange" : "K-8",
    "city" : "Seattle",
    "state" : "WA",
    "address" : "5012 SW Genesee St, Seattle, WA  98106",
    "phone" : "(206) 252-9710",
    "website" : null,
    "ncesId" : "530771001102",
    "districtId" : "229",
    "overviewLink" : "http://www.greatschools.org/washington/seattle/3226-Pathfinder-K-8/?s_cid=gsapi",
    "ratingsLink" : "http://www.greatschools.org/school/rating.page?state=WA&id=3226&s_cid=gsapi",
    "reviewsLink" : "http://www.greatschools.org/school/parentReviews.page?state=WA&id=3226&s_cid=gsapi",
    "schoolStatsLink" : "http://www.greatschools.org/modperl/achievement/WA/3226",
    "fax" : null,
    "enrollment" : 53,
    "parentRating" : 4,
    "gsRating" : 7,
    "lat" : 47.56562,
    "lon" : -122.39688
  }, {
    "gsId" : 3277,
    "name" : "Pinehurst K-8 School",
    "type" : "public",
    "gradeRange" : "PK-8",
    "city" : "Seattle",
    "state" : "WA",
    "address" : "11530 12 Av NE, Seattle, WA  98125",
    "phone" : "(206) 252-4600",
    "website" : "http://pinehurstk8.seattleschools.org",
    "ncesId" : "530771001132",
    "districtId" : "229",
    "overviewLink" : "http://www.greatschools.org/washington/seattle/3277-Pinehurst-K-8-School/?s_cid=gsapi",
    "ratingsLink" : "http://www.greatschools.org/school/rating.page?state=WA&id=3277&s_cid=gsapi",
    "reviewsLink" : "http://www.greatschools.org/school/parentReviews.page?state=WA&id=3277&s_cid=gsapi",
    "schoolStatsLink" : "http://www.greatschools.org/modperl/achievement/WA/3277",
    "fax" : "(206) 252-4601",
    "enrollment" : 27,
    "parentRating" : 5,
    "gsRating" : 4,
    "lat" : 47.713436,
    "lon" : -122.31458
  }, {
    "gsId" : 5659,
    "name" : "Queen Anne Elementary School",
    "type" : "public",
    "gradeRange" : "K-5",
    "city" : "Seattle",
    "state" : "WA",
    "address" : "411 Boston Street, Seattle, WA  98109",
    "phone" : "(206) 252-2480",
    "website" : "http://www.queenanneelementary.com/",
    "ncesId" : "530771003318",
    "districtId" : "229",
    "overviewLink" : "http://www.greatschools.org/washington/seattle/5659-Queen-Anne-Elementary-School/?s_cid=gsapi",
    "ratingsLink" : "http://www.greatschools.org/school/rating.page?state=WA&id=5659&s_cid=gsapi",
    "reviewsLink" : "http://www.greatschools.org/school/parentReviews.page?state=WA&id=5659&s_cid=gsapi",
    "schoolStatsLink" : "http://www.greatschools.org/modperl/achievement/WA/5659",
    "fax" : null,
    "enrollment" : 28,
    "parentRating" : 4,
    "gsRating" : 9,
    "lat" : 47.63794,
    "lon" : -122.34872
  }, {
    "gsId" : 1601,
    "name" : "Rainier Beach High School",
    "type" : "public",
    "gradeRange" : "9-12",
    "city" : "Seattle",
    "state" : "WA",
    "address" : "8815 Seward Park Av South, Seattle, WA  98118",
    "phone" : "(206) 252-6350",
    "website" : null,
    "ncesId" : "530771001236",
    "districtId" : "229",
    "overviewLink" : "http://www.greatschools.org/washington/seattle/1601-Rainier-Beach-High-School/?s_cid=gsapi",
    "ratingsLink" : "http://www.greatschools.org/school/rating.page?state=WA&id=1601&s_cid=gsapi",
    "reviewsLink" : "http://www.greatschools.org/school/parentReviews.page?state=WA&id=1601&s_cid=gsapi",
    "schoolStatsLink" : "http://www.greatschools.org/modperl/achievement/WA/1601",
    "fax" : null,
    "enrollment" : 118,
    "parentRating" : 3,
    "gsRating" : 3,
    "lat" : 47.524525,
    "lon" : -122.26631
  }, {
    "gsId" : 1602,
    "name" : "Rainier View Elementary School",
    "type" : "public",
    "gradeRange" : "K-5",
    "city" : "Seattle",
    "state" : "WA",
    "address" : "11650 Beacon Ave S, Seattle, WA  98178",
    "phone" : "(206) 252-6700",
    "website" : "http://rainierviewes.seattleschools.org/",
    "ncesId" : "530771001237",
    "districtId" : "229",
    "overviewLink" : "http://www.greatschools.org/washington/seattle/1602-Rainier-View-Elementary-School/?s_cid=gsapi",
    "ratingsLink" : "http://www.greatschools.org/school/rating.page?state=WA&id=1602&s_cid=gsapi",
    "reviewsLink" : "http://www.greatschools.org/school/parentReviews.page?state=WA&id=1602&s_cid=gsapi",
    "schoolStatsLink" : "http://www.greatschools.org/modperl/achievement/WA/1602",
    "fax" : null,
    "enrollment" : 13,
    "parentRating" : 4,
    "gsRating" : 7,
    "lat" : 47.499214,
    "lon" : -122.26334
  }, {
    "gsId" : 3311,
    "name" : "Residential Consortium",
    "type" : "public",
    "gradeRange" : "PK-12",
    "city" : "Seattle",
    "state" : "WA",
    "address" : "2142 10 Av West, Seattle, WA  98119",
    "phone" : "(206) 252-0883",
    "website" : null,
    "ncesId" : "530771002873",
    "districtId" : "229",
    "overviewLink" : "http://www.greatschools.org/washington/seattle/3311-Residential-Consortium/?s_cid=gsapi",
    "ratingsLink" : "http://www.greatschools.org/school/rating.page?state=WA&id=3311&s_cid=gsapi",
    "reviewsLink" : "http://www.greatschools.org/school/parentReviews.page?state=WA&id=3311&s_cid=gsapi",
    "schoolStatsLink" : "http://www.greatschools.org/modperl/achievement/WA/3311",
    "fax" : null,
    "enrollment" : 0,
    "parentRating" : 0,
    "gsRating" : 0,
    "lat" : 47.638775,
    "lon" : -122.36997
  }, {
    "gsId" : 1603,
    "name" : "Roosevelt High School",
    "type" : "public",
    "gradeRange" : "9-12",
    "city" : "Seattle",
    "state" : "WA",
    "address" : "1410 NE 66 St, Seattle, WA  98115",
    "phone" : "(206) 252-4810",
    "website" : null,
    "ncesId" : "530771001239",
    "districtId" : "229",
    "overviewLink" : "http://www.greatschools.org/washington/seattle/1603-Roosevelt-High-School/?s_cid=gsapi",
    "ratingsLink" : "http://www.greatschools.org/school/rating.page?state=WA&id=1603&s_cid=gsapi",
    "reviewsLink" : "http://www.greatschools.org/school/parentReviews.page?state=WA&id=1603&s_cid=gsapi",
    "schoolStatsLink" : "http://www.greatschools.org/modperl/achievement/WA/1603",
    "fax" : null,
    "enrollment" : 417,
    "parentRating" : 4,
    "gsRating" : 9,
    "lat" : 47.677288,
    "lon" : -122.31276
  }, {
    "gsId" : 1604,
    "name" : "Roxhill Elementary School",
    "type" : "public",
    "gradeRange" : "PK-5",
    "city" : "Seattle",
    "state" : "WA",
    "address" : "9430 30 Av SW, Seattle, WA  98126",
    "phone" : "(206) 252-9570",
    "website" : null,
    "ncesId" : "530771001240",
    "districtId" : "229",
    "overviewLink" : "http://www.greatschools.org/washington/seattle/1604-Roxhill-Elementary-School/?s_cid=gsapi",
    "ratingsLink" : "http://www.greatschools.org/school/rating.page?state=WA&id=1604&s_cid=gsapi",
    "reviewsLink" : "http://www.greatschools.org/school/parentReviews.page?state=WA&id=1604&s_cid=gsapi",
    "schoolStatsLink" : "http://www.greatschools.org/modperl/achievement/WA/1604",
    "fax" : null,
    "enrollment" : 47,
    "parentRating" : 4,
    "gsRating" : 2,
    "lat" : 47.518,
    "lon" : -122.37091
  }, {
    "gsId" : 1606,
    "name" : "Sacajawea Elementary School",
    "type" : "public",
    "gradeRange" : "K-5",
    "city" : "Seattle",
    "state" : "WA",
    "address" : "9501 20 Av NE, Seattle, WA  98115",
    "phone" : "(206) 252-5550",
    "website" : null,
    "ncesId" : "530771001242",
    "districtId" : "229",
    "overviewLink" : "http://www.greatschools.org/washington/seattle/1606-Sacajawea-Elementary-School/?s_cid=gsapi",
    "ratingsLink" : "http://www.greatschools.org/school/rating.page?state=WA&id=1606&s_cid=gsapi",
    "reviewsLink" : "http://www.greatschools.org/school/parentReviews.page?state=WA&id=1606&s_cid=gsapi",
    "schoolStatsLink" : "http://www.greatschools.org/modperl/achievement/WA/1606",
    "fax" : null,
    "enrollment" : 42,
    "parentRating" : 4,
    "gsRating" : 7,
    "lat" : 47.698483,
    "lon" : -122.30752
  }, {
    "gsId" : 3075,
    "name" : "Salmon Bay School",
    "type" : "public",
    "gradeRange" : "K-8",
    "city" : "Seattle",
    "state" : "WA",
    "address" : "1810 NW 65 St, Seattle, WA  98117",
    "phone" : "(206) 252-1720",
    "website" : null,
    "ncesId" : "530771002716",
    "districtId" : "229",
    "overviewLink" : "http://www.greatschools.org/washington/seattle/3075-Salmon-Bay-School/?s_cid=gsapi",
    "ratingsLink" : "http://www.greatschools.org/school/rating.page?state=WA&id=3075&s_cid=gsapi",
    "reviewsLink" : "http://www.greatschools.org/school/parentReviews.page?state=WA&id=3075&s_cid=gsapi",
    "schoolStatsLink" : "http://www.greatschools.org/modperl/achievement/WA/3075",
    "fax" : null,
    "enrollment" : 120,
    "parentRating" : 4,
    "gsRating" : 8,
    "lat" : 47.676582,
    "lon" : -122.38056
  }, {
    "gsId" : 5660,
    "name" : "Sand Point Elementary School",
    "type" : "public",
    "gradeRange" : "K-5",
    "city" : "Seattle",
    "state" : "WA",
    "address" : "6208 60 Ave NE, Seattle, WA  98115",
    "phone" : "(206) 252-2100",
    "website" : null,
    "ncesId" : "530771003316",
    "districtId" : "229",
    "overviewLink" : "http://www.greatschools.org/washington/seattle/5660-Sand-Point-Elementary-School/?s_cid=gsapi",
    "ratingsLink" : "http://www.greatschools.org/school/rating.page?state=WA&id=5660&s_cid=gsapi",
    "reviewsLink" : "http://www.greatschools.org/school/parentReviews.page?state=WA&id=5660&s_cid=gsapi",
    "schoolStatsLink" : "http://www.greatschools.org/modperl/achievement/WA/5660",
    "fax" : null,
    "enrollment" : 9,
    "parentRating" : 5,
    "gsRating" : 6,
    "lat" : 47.67366,
    "lon" : -122.26352
  }, {
    "gsId" : 1607,
    "name" : "Sanislo Elementary School",
    "type" : "public",
    "gradeRange" : "K-5",
    "city" : "Seattle",
    "state" : "WA",
    "address" : "1812 SW Myrtle St, Seattle, WA  98106",
    "phone" : "(206) 252-8380",
    "website" : null,
    "ncesId" : "530771001244",
    "districtId" : "229",
    "overviewLink" : "http://www.greatschools.org/washington/seattle/1607-Sanislo-Elementary-School/?s_cid=gsapi",
    "ratingsLink" : "http://www.greatschools.org/school/rating.page?state=WA&id=1607&s_cid=gsapi",
    "reviewsLink" : "http://www.greatschools.org/school/parentReviews.page?state=WA&id=1607&s_cid=gsapi",
    "schoolStatsLink" : "http://www.greatschools.org/modperl/achievement/WA/1607",
    "fax" : null,
    "enrollment" : 52,
    "parentRating" : 5,
    "gsRating" : 3,
    "lat" : 47.53987,
    "lon" : -122.35883
  }, {
    "gsId" : 1608,
    "name" : "Schmitz Park Elementary School",
    "type" : "public",
    "gradeRange" : "K-5",
    "city" : "Seattle",
    "state" : "WA",
    "address" : "5000 SW Spokane St, Seattle, WA  98116",
    "phone" : "(206) 252-9700",
    "website" : "http://www.seattleschools.org/schools/spark/",
    "ncesId" : "530771001245",
    "districtId" : "229",
    "overviewLink" : "http://www.greatschools.org/washington/seattle/1608-Schmitz-Park-Elementary-School/?s_cid=gsapi",
    "ratingsLink" : "http://www.greatschools.org/school/rating.page?state=WA&id=1608&s_cid=gsapi",
    "reviewsLink" : "http://www.greatschools.org/school/parentReviews.page?state=WA&id=1608&s_cid=gsapi",
    "schoolStatsLink" : "http://www.greatschools.org/modperl/achievement/WA/1608",
    "fax" : null,
    "enrollment" : 58,
    "parentRating" : 4,
    "gsRating" : 9,
    "lat" : 47.572655,
    "lon" : -122.39659
  }, {
    "gsId" : 740,
    "name" : "Sea-Tac Occupational Skills Center",
    "type" : "public",
    "gradeRange" : "10-12",
    "city" : "Seattle",
    "state" : "WA",
    "address" : "18010 8th Ave South, Seattle, WA  98148",
    "phone" : "(206) 433-2524",
    "website" : null,
    "ncesId" : "530354002103",
    "districtId" : "108",
    "overviewLink" : "http://www.greatschools.org/washington/seattle/740-Sea-Tac-Occupational-Skills-Center/?s_cid=gsapi",
    "ratingsLink" : "http://www.greatschools.org/school/rating.page?state=WA&id=740&s_cid=gsapi",
    "reviewsLink" : "http://www.greatschools.org/school/parentReviews.page?state=WA&id=740&s_cid=gsapi",
    "schoolStatsLink" : "http://www.greatschools.org/modperl/achievement/WA/740",
    "fax" : null,
    "enrollment" : 0,
    "parentRating" : 5,
    "gsRating" : 0,
    "lat" : 47.441147,
    "lon" : -122.32322
  }, {
    "gsId" : 3175,
    "name" : "Secondary Bilingual Orientation Center",
    "type" : "public",
    "gradeRange" : "6-12",
    "city" : "Seattle",
    "state" : "WA",
    "address" : "411 Boston St, Seattle, WA  98109",
    "phone" : "(206) 252-2200",
    "website" : null,
    "ncesId" : "530771001311",
    "districtId" : "229",
    "overviewLink" : "http://www.greatschools.org/washington/seattle/3175-Secondary-Bilingual-Orientation-Center/?s_cid=gsapi",
    "ratingsLink" : "http://www.greatschools.org/school/rating.page?state=WA&id=3175&s_cid=gsapi",
    "reviewsLink" : "http://www.greatschools.org/school/parentReviews.page?state=WA&id=3175&s_cid=gsapi",
    "schoolStatsLink" : "http://www.greatschools.org/modperl/achievement/WA/3175",
    "fax" : null,
    "enrollment" : 18,
    "parentRating" : 0,
    "gsRating" : 4,
    "lat" : 47.62143,
    "lon" : -122.30476
  }, {
    "gsId" : 1745,
    "name" : "Showalter Middle School",
    "type" : "public",
    "gradeRange" : "6-8",
    "city" : "Seattle",
    "state" : "WA",
    "address" : "4628 South 144th St, Seattle, WA  98168",
    "phone" : "(206) 901-7805",
    "website" : null,
    "ncesId" : "530813001342",
    "districtId" : "243",
    "overviewLink" : "http://www.greatschools.org/washington/seattle/1745-Showalter-Middle-School/?s_cid=gsapi",
    "ratingsLink" : "http://www.greatschools.org/school/rating.page?state=WA&id=1745&s_cid=gsapi",
    "reviewsLink" : "http://www.greatschools.org/school/parentReviews.page?state=WA&id=1745&s_cid=gsapi",
    "schoolStatsLink" : "http://www.greatschools.org/modperl/achievement/WA/1745",
    "fax" : null,
    "enrollment" : 226,
    "parentRating" : 3,
    "gsRating" : 2,
    "lat" : 47.474915,
    "lon" : -122.27485
  }, {
    "gsId" : 1600,
    "name" : "South Lake High School",
    "type" : "public",
    "gradeRange" : "9-12",
    "city" : "Seattle",
    "state" : "WA",
    "address" : "8601 Rainier Ave South, Seattle, WA  98118",
    "phone" : "(206) 252-6600",
    "website" : null,
    "ncesId" : "530771001234",
    "districtId" : "229",
    "overviewLink" : "http://www.greatschools.org/washington/seattle/1600-South-Lake-High-School/?s_cid=gsapi",
    "ratingsLink" : "http://www.greatschools.org/school/rating.page?state=WA&id=1600&s_cid=gsapi",
    "reviewsLink" : "http://www.greatschools.org/school/parentReviews.page?state=WA&id=1600&s_cid=gsapi",
    "schoolStatsLink" : "http://www.greatschools.org/modperl/achievement/WA/1600",
    "fax" : null,
    "enrollment" : 40,
    "parentRating" : 3,
    "gsRating" : 2,
    "lat" : 47.52613,
    "lon" : -122.27005
  }, {
    "gsId" : 734,
    "name" : "Southern Heights Elementary School",
    "type" : "public",
    "gradeRange" : "PK-6",
    "city" : "Seattle",
    "state" : "WA",
    "address" : "11249 14th Ave South, Seattle, WA  98168",
    "phone" : "(206) 631-5000",
    "website" : null,
    "ncesId" : "530354000551",
    "districtId" : "108",
    "overviewLink" : "http://www.greatschools.org/washington/seattle/734-Southern-Heights-Elementary-School/?s_cid=gsapi",
    "ratingsLink" : "http://www.greatschools.org/school/rating.page?state=WA&id=734&s_cid=gsapi",
    "reviewsLink" : "http://www.greatschools.org/school/parentReviews.page?state=WA&id=734&s_cid=gsapi",
    "schoolStatsLink" : "http://www.greatschools.org/modperl/achievement/WA/734",
    "fax" : null,
    "enrollment" : 56,
    "parentRating" : 4,
    "gsRating" : 4,
    "lat" : 47.501923,
    "lon" : -122.315865
  }, {
    "gsId" : 3521,
    "name" : "Special Education Home Instruction",
    "type" : "public",
    "gradeRange" : "PK-5",
    "city" : "Seattle",
    "state" : "WA",
    "address" : "1330 North 90 St, Seattle, WA  98103",
    "phone" : "(206) 252-0838",
    "website" : null,
    "ncesId" : "530771001371",
    "districtId" : "229",
    "overviewLink" : "http://www.greatschools.org/washington/seattle/3521-Special-Education-Home-Instruction/?s_cid=gsapi",
    "ratingsLink" : "http://www.greatschools.org/school/rating.page?state=WA&id=3521&s_cid=gsapi",
    "reviewsLink" : "http://www.greatschools.org/school/parentReviews.page?state=WA&id=3521&s_cid=gsapi",
    "schoolStatsLink" : "http://www.greatschools.org/modperl/achievement/WA/3521",
    "fax" : null,
    "enrollment" : 40,
    "parentRating" : 0,
    "gsRating" : 0,
    "lat" : 47.69502,
    "lon" : -122.34035
  }, {
    "gsId" : 3738,
    "name" : "Special Education Service School",
    "type" : "public",
    "gradeRange" : "PK-12",
    "city" : "Seattle",
    "state" : "WA",
    "address" : "2445 3rd Av, Seattle, WA  98124",
    "phone" : "(206) 252-0805",
    "website" : null,
    "ncesId" : "530771003046",
    "districtId" : "229",
    "overviewLink" : "http://www.greatschools.org/washington/seattle/3738-Special-Education-Service-School/?s_cid=gsapi",
    "ratingsLink" : "http://www.greatschools.org/school/rating.page?state=WA&id=3738&s_cid=gsapi",
    "reviewsLink" : "http://www.greatschools.org/school/parentReviews.page?state=WA&id=3738&s_cid=gsapi",
    "schoolStatsLink" : "http://www.greatschools.org/modperl/achievement/WA/3738",
    "fax" : null,
    "enrollment" : 3,
    "parentRating" : 0,
    "gsRating" : 0,
    "lat" : 47.615456,
    "lon" : -122.346596
  }, {
    "gsId" : 1610,
    "name" : "Stevens Elementary School",
    "type" : "public",
    "gradeRange" : "K-5",
    "city" : "Seattle",
    "state" : "WA",
    "address" : "1242 18 Av East, Seattle, WA  98112",
    "phone" : "(206) 252-3400",
    "website" : "http://www.stevenschool.org",
    "ncesId" : "530771001251",
    "districtId" : "229",
    "overviewLink" : "http://www.greatschools.org/washington/seattle/1610-Stevens-Elementary-School/?s_cid=gsapi",
    "ratingsLink" : "http://www.greatschools.org/school/rating.page?state=WA&id=1610&s_cid=gsapi",
    "reviewsLink" : "http://www.greatschools.org/school/parentReviews.page?state=WA&id=1610&s_cid=gsapi",
    "schoolStatsLink" : "http://www.greatschools.org/modperl/achievement/WA/1610",
    "fax" : null,
    "enrollment" : 68,
    "parentRating" : 4,
    "gsRating" : 6,
    "lat" : 47.631886,
    "lon" : -122.30811
  }, {
    "gsId" : 5467,
    "name" : "Technology Engineering & Communications",
    "type" : "public",
    "gradeRange" : "9-12",
    "city" : "Seattle",
    "state" : "WA",
    "address" : "830 SW 116th St, Seattle, WA  98146",
    "phone" : "(206) 631-6300",
    "website" : null,
    "ncesId" : "530354003180",
    "districtId" : "108",
    "overviewLink" : "http://www.greatschools.org/washington/seattle/5467-Technology-Engineering-&-Communications/?s_cid=gsapi",
    "ratingsLink" : "http://www.greatschools.org/school/rating.page?state=WA&id=5467&s_cid=gsapi",
    "reviewsLink" : "http://www.greatschools.org/school/parentReviews.page?state=WA&id=5467&s_cid=gsapi",
    "schoolStatsLink" : "http://www.greatschools.org/modperl/achievement/WA/5467",
    "fax" : null,
    "enrollment" : 78,
    "parentRating" : 5,
    "gsRating" : 4,
    "lat" : 47.500076,
    "lon" : -122.34542
  }, {
    "gsId" : 2939,
    "name" : "The Center School",
    "type" : "public",
    "gradeRange" : "9-12",
    "city" : "Seattle",
    "state" : "WA",
    "address" : "305 Harrison St, Seattle, WA  98109",
    "phone" : "(206) 252-9850",
    "website" : null,
    "ncesId" : "530771002842",
    "districtId" : "229",
    "overviewLink" : "http://www.greatschools.org/washington/seattle/2939-The-Center-School/?s_cid=gsapi",
    "ratingsLink" : "http://www.greatschools.org/school/rating.page?state=WA&id=2939&s_cid=gsapi",
    "reviewsLink" : "http://www.greatschools.org/school/parentReviews.page?state=WA&id=2939&s_cid=gsapi",
    "schoolStatsLink" : "http://www.greatschools.org/modperl/achievement/WA/2939",
    "fax" : null,
    "enrollment" : 54,
    "parentRating" : 4,
    "gsRating" : 8,
    "lat" : 47.62171,
    "lon" : -122.34829
  }, {
    "gsId" : 3289,
    "name" : "The New School At South Shore",
    "type" : "public",
    "gradeRange" : "PK-8",
    "city" : "Seattle",
    "state" : "WA",
    "address" : "3528 South Ferdinand St, Seattle, WA  98118",
    "phone" : "(206) 252-7600",
    "website" : null,
    "ncesId" : "530771002933",
    "districtId" : "229",
    "overviewLink" : "http://www.greatschools.org/washington/seattle/3289-The-New-School-At-South-Shore/?s_cid=gsapi",
    "ratingsLink" : "http://www.greatschools.org/school/rating.page?state=WA&id=3289&s_cid=gsapi",
    "reviewsLink" : "http://www.greatschools.org/school/parentReviews.page?state=WA&id=3289&s_cid=gsapi",
    "schoolStatsLink" : "http://www.greatschools.org/modperl/achievement/WA/3289",
    "fax" : null,
    "enrollment" : 80,
    "parentRating" : 5,
    "gsRating" : 6,
    "lat" : 47.523365,
    "lon" : -122.27281
  }, {
    "gsId" : 1746,
    "name" : "Thorndyke Elementary School",
    "type" : "public",
    "gradeRange" : "PK-5",
    "city" : "Seattle",
    "state" : "WA",
    "address" : "4415 South 150th St, Seattle, WA  98188",
    "phone" : "(206) 901-7605",
    "website" : null,
    "ncesId" : "530813001343",
    "districtId" : "243",
    "overviewLink" : "http://www.greatschools.org/washington/seattle/1746-Thorndyke-Elementary-School/?s_cid=gsapi",
    "ratingsLink" : "http://www.greatschools.org/school/rating.page?state=WA&id=1746&s_cid=gsapi",
    "reviewsLink" : "http://www.greatschools.org/school/parentReviews.page?state=WA&id=1746&s_cid=gsapi",
    "schoolStatsLink" : "http://www.greatschools.org/modperl/achievement/WA/1746",
    "fax" : null,
    "enrollment" : 62,
    "parentRating" : 4,
    "gsRating" : 2,
    "lat" : 47.46821,
    "lon" : -122.276665
  }, {
    "gsId" : 1640,
    "name" : "Thurgood Marshall Elementary School",
    "type" : "public",
    "gradeRange" : "PK-5",
    "city" : "Seattle",
    "state" : "WA",
    "address" : "2401 South Irving St, Seattle, WA  98144",
    "phone" : "(206) 252-2800",
    "website" : null,
    "ncesId" : "530771002347",
    "districtId" : "229",
    "overviewLink" : "http://www.greatschools.org/washington/seattle/1640-Thurgood-Marshall-Elementary-School/?s_cid=gsapi",
    "ratingsLink" : "http://www.greatschools.org/school/rating.page?state=WA&id=1640&s_cid=gsapi",
    "reviewsLink" : "http://www.greatschools.org/school/parentReviews.page?state=WA&id=1640&s_cid=gsapi",
    "schoolStatsLink" : "http://www.greatschools.org/modperl/achievement/WA/1640",
    "fax" : null,
    "enrollment" : 123,
    "parentRating" : 5,
    "gsRating" : 9,
    "lat" : 47.590977,
    "lon" : -122.29933
  }, {
    "gsId" : 3156,
    "name" : "Tops K-8",
    "type" : "public",
    "gradeRange" : "PK-8",
    "city" : "Seattle",
    "state" : "WA",
    "address" : "2500 Franklin Av East, Seattle, WA  98102",
    "phone" : "(206) 252-3510",
    "website" : null,
    "ncesId" : "530771001307",
    "districtId" : "229",
    "overviewLink" : "http://www.greatschools.org/washington/seattle/3156-Tops-K-8/?s_cid=gsapi",
    "ratingsLink" : "http://www.greatschools.org/school/rating.page?state=WA&id=3156&s_cid=gsapi",
    "reviewsLink" : "http://www.greatschools.org/school/parentReviews.page?state=WA&id=3156&s_cid=gsapi",
    "schoolStatsLink" : "http://www.greatschools.org/modperl/achievement/WA/3156",
    "fax" : null,
    "enrollment" : 62,
    "parentRating" : 4,
    "gsRating" : 7,
    "lat" : 47.642467,
    "lon" : -122.32416
  }, {
    "gsId" : 1612,
    "name" : "Van Asselt Elementary School",
    "type" : "public",
    "gradeRange" : "K-5",
    "city" : "Seattle",
    "state" : "WA",
    "address" : "7201 Beacon Av South, Seattle, WA  98108",
    "phone" : "(206) 252-7500",
    "website" : null,
    "ncesId" : "530771001255",
    "districtId" : "229",
    "overviewLink" : "http://www.greatschools.org/washington/seattle/1612-Van-Asselt-Elementary-School/?s_cid=gsapi",
    "ratingsLink" : "http://www.greatschools.org/school/rating.page?state=WA&id=1612&s_cid=gsapi",
    "reviewsLink" : "http://www.greatschools.org/school/parentReviews.page?state=WA&id=1612&s_cid=gsapi",
    "schoolStatsLink" : "http://www.greatschools.org/modperl/achievement/WA/1612",
    "fax" : null,
    "enrollment" : 82,
    "parentRating" : 3,
    "gsRating" : 5,
    "lat" : 47.53803,
    "lon" : -122.296165
  }, {
    "gsId" : 1613,
    "name" : "View Ridge Elementary School",
    "type" : "public",
    "gradeRange" : "PK-5",
    "city" : "Seattle",
    "state" : "WA",
    "address" : "7047 50 Av NE, Seattle, WA  98115",
    "phone" : "(206) 252-5600",
    "website" : null,
    "ncesId" : "530771001256",
    "districtId" : "229",
    "overviewLink" : "http://www.greatschools.org/washington/seattle/1613-View-Ridge-Elementary-School/?s_cid=gsapi",
    "ratingsLink" : "http://www.greatschools.org/school/rating.page?state=WA&id=1613&s_cid=gsapi",
    "reviewsLink" : "http://www.greatschools.org/school/parentReviews.page?state=WA&id=1613&s_cid=gsapi",
    "schoolStatsLink" : "http://www.greatschools.org/modperl/achievement/WA/1613",
    "fax" : null,
    "enrollment" : 77,
    "parentRating" : 4,
    "gsRating" : 10,
    "lat" : 47.68058,
    "lon" : -122.2761
  }, {
    "gsId" : 1614,
    "name" : "Viewlands Elementary School",
    "type" : "public",
    "gradeRange" : "K-5",
    "city" : "Seattle",
    "state" : "WA",
    "address" : "10525 3rd Ave NW, Seattle, WA  98177",
    "phone" : "(206) 252-4400",
    "website" : "http://viewlandses.seattleschools.org/modules/cms/pages.phtml?pageid=237388&sessionid=df918d997ad75aeb0159b9ec9e70ad74&sessionid=df918d997ad75aeb0159b9ec9e70ad74",
    "ncesId" : "530771001257",
    "districtId" : "229",
    "overviewLink" : "http://www.greatschools.org/washington/seattle/1614-Viewlands-Elementary-School/?s_cid=gsapi",
    "ratingsLink" : "http://www.greatschools.org/school/rating.page?state=WA&id=1614&s_cid=gsapi",
    "reviewsLink" : "http://www.greatschools.org/school/parentReviews.page?state=WA&id=1614&s_cid=gsapi",
    "schoolStatsLink" : "http://www.greatschools.org/modperl/achievement/WA/1614",
    "fax" : "(206) 252-4401",
    "enrollment" : 17,
    "parentRating" : 4,
    "gsRating" : 3,
    "lat" : 47.706398,
    "lon" : -122.360794
  }, {
    "gsId" : 1615,
    "name" : "Washington Middle School",
    "type" : "public",
    "gradeRange" : "6-8",
    "city" : "Seattle",
    "state" : "WA",
    "address" : "2101 South Jackson St, Seattle, WA  98144",
    "phone" : "(206) 252-2600",
    "website" : null,
    "ncesId" : "530771001259",
    "districtId" : "229",
    "overviewLink" : "http://www.greatschools.org/washington/seattle/1615-Washington-Middle-School/?s_cid=gsapi",
    "ratingsLink" : "http://www.greatschools.org/school/rating.page?state=WA&id=1615&s_cid=gsapi",
    "reviewsLink" : "http://www.greatschools.org/school/parentReviews.page?state=WA&id=1615&s_cid=gsapi",
    "schoolStatsLink" : "http://www.greatschools.org/modperl/achievement/WA/1615",
    "fax" : null,
    "enrollment" : 370,
    "parentRating" : 4,
    "gsRating" : 8,
    "lat" : 47.598392,
    "lon" : -122.30389
  }, {
    "gsId" : 1616,
    "name" : "Wedgwood Elementary School",
    "type" : "public",
    "gradeRange" : "K-5",
    "city" : "Seattle",
    "state" : "WA",
    "address" : "2720 NE 85 St, Seattle, WA  98115",
    "phone" : "(206) 252-5670",
    "website" : null,
    "ncesId" : "530771001261",
    "districtId" : "229",
    "overviewLink" : "http://www.greatschools.org/washington/seattle/1616-Wedgwood-Elementary-School/?s_cid=gsapi",
    "ratingsLink" : "http://www.greatschools.org/school/rating.page?state=WA&id=1616&s_cid=gsapi",
    "reviewsLink" : "http://www.greatschools.org/school/parentReviews.page?state=WA&id=1616&s_cid=gsapi",
    "schoolStatsLink" : "http://www.greatschools.org/modperl/achievement/WA/1616",
    "fax" : null,
    "enrollment" : 60,
    "parentRating" : 4,
    "gsRating" : 10,
    "lat" : 47.69055,
    "lon" : -122.29712
  }, {
    "gsId" : 1569,
    "name" : "West Seattle Elementary School",
    "type" : "public",
    "gradeRange" : "PK-5",
    "city" : "Seattle",
    "state" : "WA",
    "address" : "6760 34 Av SW, Seattle, WA  98126",
    "phone" : "(206) 252-9450",
    "website" : null,
    "ncesId" : "530771001182",
    "districtId" : "229",
    "overviewLink" : "http://www.greatschools.org/washington/seattle/1569-West-Seattle-Elementary-School/?s_cid=gsapi",
    "ratingsLink" : "http://www.greatschools.org/school/rating.page?state=WA&id=1569&s_cid=gsapi",
    "reviewsLink" : "http://www.greatschools.org/school/parentReviews.page?state=WA&id=1569&s_cid=gsapi",
    "schoolStatsLink" : "http://www.greatschools.org/modperl/achievement/WA/1569",
    "fax" : null,
    "enrollment" : 55,
    "parentRating" : 5,
    "gsRating" : 5,
    "lat" : 47.541687,
    "lon" : -122.373985
  }, {
    "gsId" : 1617,
    "name" : "West Seattle High School",
    "type" : "public",
    "gradeRange" : "9-12",
    "city" : "Seattle",
    "state" : "WA",
    "address" : "3000 California Av SW, Seattle, WA  98116",
    "phone" : "(206) 252-8800",
    "website" : null,
    "ncesId" : "530771001262",
    "districtId" : "229",
    "overviewLink" : "http://www.greatschools.org/washington/seattle/1617-West-Seattle-High-School/?s_cid=gsapi",
    "ratingsLink" : "http://www.greatschools.org/school/rating.page?state=WA&id=1617&s_cid=gsapi",
    "reviewsLink" : "http://www.greatschools.org/school/parentReviews.page?state=WA&id=1617&s_cid=gsapi",
    "schoolStatsLink" : "http://www.greatschools.org/modperl/achievement/WA/1617",
    "fax" : null,
    "enrollment" : 264,
    "parentRating" : 4,
    "gsRating" : 5,
    "lat" : 47.5769,
    "lon" : -122.3845
  }, {
    "gsId" : 1618,
    "name" : "West Woodland Elementary School",
    "type" : "public",
    "gradeRange" : "K-5",
    "city" : "Seattle",
    "state" : "WA",
    "address" : "5601 4 Av NW, Seattle, WA  98107",
    "phone" : "(206) 252-1600",
    "website" : null,
    "ncesId" : "530771001263",
    "districtId" : "229",
    "overviewLink" : "http://www.greatschools.org/washington/seattle/1618-West-Woodland-Elementary-School/?s_cid=gsapi",
    "ratingsLink" : "http://www.greatschools.org/school/rating.page?state=WA&id=1618&s_cid=gsapi",
    "reviewsLink" : "http://www.greatschools.org/school/parentReviews.page?state=WA&id=1618&s_cid=gsapi",
    "schoolStatsLink" : "http://www.greatschools.org/modperl/achievement/WA/1618",
    "fax" : null,
    "enrollment" : 64,
    "parentRating" : 4,
    "gsRating" : 10,
    "lat" : 47.67016,
    "lon" : -122.362656
  }, {
    "gsId" : 738,
    "name" : "White Center Heights Elementary",
    "type" : "public",
    "gradeRange" : "PK-6",
    "city" : "Seattle",
    "state" : "WA",
    "address" : "11427 3rd Ave South, Seattle, WA  98168",
    "phone" : "(206) 433-2437",
    "website" : "http://www.hsd401.org/schools/wch/home.htm",
    "ncesId" : "530354000557",
    "districtId" : "108",
    "overviewLink" : "http://www.greatschools.org/washington/seattle/738-White-Center-Heights-Elementary/?s_cid=gsapi",
    "ratingsLink" : "http://www.greatschools.org/school/rating.page?state=WA&id=738&s_cid=gsapi",
    "reviewsLink" : "http://www.greatschools.org/school/parentReviews.page?state=WA&id=738&s_cid=gsapi",
    "schoolStatsLink" : "http://www.greatschools.org/modperl/achievement/WA/738",
    "fax" : null,
    "enrollment" : 80,
    "parentRating" : 3,
    "gsRating" : 3,
    "lat" : 47.50004,
    "lon" : -122.33043
  }, {
    "gsId" : 1619,
    "name" : "Whitman Middle School",
    "type" : "public",
    "gradeRange" : "6-8",
    "city" : "Seattle",
    "state" : "WA",
    "address" : "9201 15 Av NW, Seattle, WA  98117",
    "phone" : "(206) 252-1200",
    "website" : null,
    "ncesId" : "530771001264",
    "districtId" : "229",
    "overviewLink" : "http://www.greatschools.org/washington/seattle/1619-Whitman-Middle-School/?s_cid=gsapi",
    "ratingsLink" : "http://www.greatschools.org/school/rating.page?state=WA&id=1619&s_cid=gsapi",
    "reviewsLink" : "http://www.greatschools.org/school/parentReviews.page?state=WA&id=1619&s_cid=gsapi",
    "schoolStatsLink" : "http://www.greatschools.org/modperl/achievement/WA/1619",
    "fax" : null,
    "enrollment" : 300,
    "parentRating" : 3,
    "gsRating" : 8,
    "lat" : 47.697075,
    "lon" : -122.377754
  }, {
    "gsId" : 1620,
    "name" : "Whittier Elementary School",
    "type" : "public",
    "gradeRange" : "K-5",
    "city" : "Seattle",
    "state" : "WA",
    "address" : "1320 NW 75 St, Seattle, WA  98117",
    "phone" : "(206) 252-1650",
    "website" : "http://www.whittierway.org/",
    "ncesId" : "530771001265",
    "districtId" : "229",
    "overviewLink" : "http://www.greatschools.org/washington/seattle/1620-Whittier-Elementary-School/?s_cid=gsapi",
    "ratingsLink" : "http://www.greatschools.org/school/rating.page?state=WA&id=1620&s_cid=gsapi",
    "reviewsLink" : "http://www.greatschools.org/school/parentReviews.page?state=WA&id=1620&s_cid=gsapi",
    "schoolStatsLink" : "http://www.greatschools.org/modperl/achievement/WA/1620",
    "fax" : null,
    "enrollment" : 78,
    "parentRating" : 4,
    "gsRating" : 10,
    "lat" : 47.683655,
    "lon" : -122.37336
  }, {
    "gsId" : 1622,
    "name" : "Wing Luke Elementary School",
    "type" : "public",
    "gradeRange" : "K-5",
    "city" : "Seattle",
    "state" : "WA",
    "address" : "3701 South Kenyon St, Seattle, WA  98118",
    "phone" : "(206) 252-7630",
    "website" : "http://www.seattleschools/schools/wingluke",
    "ncesId" : "530771001267",
    "districtId" : "229",
    "overviewLink" : "http://www.greatschools.org/washington/seattle/1622-Wing-Luke-Elementary-School/?s_cid=gsapi",
    "ratingsLink" : "http://www.greatschools.org/school/rating.page?state=WA&id=1622&s_cid=gsapi",
    "reviewsLink" : "http://www.greatschools.org/school/parentReviews.page?state=WA&id=1622&s_cid=gsapi",
    "schoolStatsLink" : "http://www.greatschools.org/modperl/achievement/WA/1622",
    "fax" : null,
    "enrollment" : 58,
    "parentRating" : 5,
    "gsRating" : 7,
    "lat" : 47.530617,
    "lon" : -122.28508
  }, {
    "gsId" : 3753,
    "name" : "Woodside",
    "type" : "public",
    "gradeRange" : "PK-8, 10-12",
    "city" : "Seattle",
    "state" : "WA",
    "address" : "18637 8th Ave South, Seattle, WA  98148",
    "phone" : "(206) 433-2493",
    "website" : null,
    "ncesId" : "530354002968",
    "districtId" : "108",
    "overviewLink" : "http://www.greatschools.org/washington/seattle/3753-Woodside/?s_cid=gsapi",
    "ratingsLink" : "http://www.greatschools.org/school/rating.page?state=WA&id=3753&s_cid=gsapi",
    "reviewsLink" : "http://www.greatschools.org/school/parentReviews.page?state=WA&id=3753&s_cid=gsapi",
    "schoolStatsLink" : "http://www.greatschools.org/modperl/achievement/WA/3753",
    "fax" : null,
    "enrollment" : 0,
    "parentRating" : 3,
    "gsRating" : 0,
    "lat" : 47.43536,
    "lon" : -122.325134
  } ]
}